[
  {
    "CityId": "22",
    "Values": [
      {
        "Id": 1699,
        "StationName": "1. MURAT PETROL OFISI",
        "Address": "1.MURAT MAHALLESİ TALATPAŞA CAD.NO:64, MERKEZ, Edirne",
        "CityName": "Edirne",
        "DistrictName": "MERKEZ",
        "PhoneNumber": "02842361222",
        "Latitude": 41.662883,
        "Longitude": 26.578193,
        "CityId": "22",
        "DistrictId": "02200",
        "Zone": "Batı Marmara",
        "Services": "10010001010000110001101011000010101",
        "Url": "1-murat-petrol-ofisi-1699"
      },
      {
        "Id": 1018,
        "StationName": "ADASARHANLI KÖYÜ PETROL OFISI",
        "Address": "ADASARHANLI KÖYÜ, MERİÇ, Edirne",
        "CityName": "Edirne",
        "DistrictName": "MERİÇ",
        "PhoneNumber": "02844391190",
        "Latitude": 41.083913,
        "Longitude": 26.355788,
        "CityId": "22",
        "DistrictId": "02206",
        "Zone": "Batı Marmara",
        "Services": "00010000000000000000000000000000101",
        "Url": "adasarhanli-koyu-petrol-ofisi-1018"
      },
      {
        "Id": 136,
        "StationName": "ADASARHANLI MERIÇ YOLU PETROL OFISI",
        "Address": "ADASARHANLI KÖYÜ, MERİÇ, Edirne",
        "CityName": "Edirne",
        "DistrictName": "MERİÇ",
        "PhoneNumber": "02844391015",
        "Latitude": 41.086027,
        "Longitude": 26.349995,
        "CityId": "22",
        "DistrictId": "02206",
        "Zone": "Batı Marmara",
        "Services": "00000000000000000000000000000000100",
        "Url": "adasarhanli-meric-yolu-petrol-ofisi-136"
      },
      {
        "Id": 2644,
        "StationName": "BOSTANPAZARI CAD. PETROL OFİSİ",
        "Address": "TALATPAŞA MAHALLESİ BOSTANPAZARI CADDESİ NO:39, MERKEZ, Edirne",
        "CityName": "Edirne",
        "DistrictName": "MERKEZ",
        "Latitude": 41.667306,
        "Longitude": 26.558651,
        "CityId": "22",
        "DistrictId": "02200",
        "Zone": "Batı Marmara",
        "Services": "00000000000000000000000000000000100",
        "Url": "bostanpazari-cad-petrol-ofisi-2644"
      },
      {
        "Id": 616,
        "StationName": "ÇÖPKÖY PETROL OFISI",
        "Address": "ÇÖPKÖY MAHALLESI İSTIKLAL 3 CADDESI NO:12, UZUNKÖPRÜ, Edirne",
        "CityName": "Edirne",
        "DistrictName": "UZUNKÖPRÜ",
        "PhoneNumber": "02845444400",
        "Latitude": 41.225952,
        "Longitude": 26.810944,
        "CityId": "22",
        "DistrictId": "02208",
        "Zone": "Batı Marmara",
        "Services": "00010000000000000001001000000000101",
        "Url": "copkoy-petrol-ofisi-616"
      },
      {
        "Id": 2101,
        "StationName": "EDIRNE MERKEZ",
        "Address": "ATATÜRK MAHALLESİ ATATÜRK BULVARI NO:240/Z01, MERKEZ, Edirne",
        "CityName": "Edirne",
        "DistrictName": "MERKEZ",
        "Latitude": 41.6680892,
        "Longitude": 26.5712227,
        "CityId": "22",
        "DistrictId": "02200",
        "Zone": "Batı Marmara",
        "Services": "00010000000000000000001000000000011",
        "Url": "edirne-merkez-2101"
      },
      {
        "Id": 462,
        "StationName": "EDIRNE MERKEZ PETROL OFISI",
        "Address": "ABDURRAHMAN MAH. TALATPAŞA CAD. NO:61, MERKEZ, Edirne",
        "CityName": "Edirne",
        "DistrictName": "MERKEZ",
        "PhoneNumber": "02842131555",
        "Latitude": 41.667894,
        "Longitude": 26.570829,
        "CityId": "22",
        "DistrictId": "02200",
        "Zone": "Batı Marmara",
        "Services": "10010100100001110001001011000000101",
        "Url": "edirne-merkez-petrol-ofisi-462"
      },
      {
        "Id": 2102,
        "StationName": "EDIRNE YOLU",
        "Address": "KOCASİNAN MAHALLESİ E-5 KARAYOLU CADDESİ NO:54, MERKEZ, Edirne",
        "CityName": "Edirne",
        "DistrictName": "MERKEZ",
        "Latitude": 41.6266441,
        "Longitude": 26.6240316,
        "CityId": "22",
        "DistrictId": "02200",
        "Zone": "Batı Marmara",
        "Services": "00010000000000000000001000000000011",
        "Url": "edirne-yolu-2102"
      },
      {
        "Id": 824,
        "StationName": "ENEZ PETROL OFISI",
        "Address": "GAZİÖMER BEY MAHALLESİ MİLLİ EGEMENLİK CADDESİ NO:76, ENEZ, Edirne",
        "CityName": "Edirne",
        "DistrictName": "ENEZ",
        "PhoneNumber": "02847154989",
        "Latitude": 40.715519,
        "Longitude": 26.105647,
        "CityId": "22",
        "DistrictId": "02201",
        "Zone": "Batı Marmara",
        "Services": "00010000100000100001101000000110101",
        "Url": "enez-petrol-ofisi-824"
      },
      {
        "Id": 2100,
        "StationName": "ENEZKAVŞAĞI",
        "Address": "AŞAĞİ ZAFERİYE MAHALLESİ ENEZ CADDESİ NO:24, KEŞAN, Edirne",
        "CityName": "Edirne",
        "DistrictName": "KEŞAN",
        "PhoneNumber": "02847141745",
        "Latitude": 40.8376315,
        "Longitude": 26.6227886,
        "CityId": "22",
        "DistrictId": "02204",
        "Zone": "Batı Marmara",
        "Services": "00010000000000000000001000000000101",
        "Url": "enezkavsagi-2100"
      },
      {
        "Id": 1002,
        "StationName": "HAMIDIYE PETROL OFISI",
        "Address": "HAMİDİYE KÖYÜ, UZUNKÖPRÜ, Edirne",
        "CityName": "Edirne",
        "DistrictName": "UZUNKÖPRÜ",
        "PhoneNumber": "02845831005",
        "Latitude": 41.1554158,
        "Longitude": 26.6649839,
        "CityId": "22",
        "DistrictId": "02208",
        "Zone": "Batı Marmara",
        "Services": "00010000000000100001101000000010101",
        "Url": "hamidiye-petrol-ofisi-1002"
      },
      {
        "Id": 1464,
        "StationName": "HAMZABEYLI YOLU PETROL OFISI",
        "Address": "KÖYÜN KENDİSİ KAYAPA KÜME EVLER NO: 85 /1 İÇ KAPI NO: 1 KAYA, MERKEZ, Edirne",
        "CityName": "Edirne",
        "DistrictName": "MERKEZ",
        "Latitude": 41.787608,
        "Longitude": 26.686532,
        "CityId": "22",
        "DistrictId": "02200",
        "Zone": "Batı Marmara",
        "Services": "10110101100000000000001000000000101",
        "Url": "hamzabeyli-yolu-petrol-ofisi-1464"
      },
      {
        "Id": 2098,
        "StationName": "HAVSA",
        "Address": "TİLKİDERE MEVKİİ OSMANLI KÖYÜ, HAVSA, Edirne",
        "CityName": "Edirne",
        "DistrictName": "HAVSA",
        "Latitude": 41.5661804,
        "Longitude": 26.8287998,
        "CityId": "22",
        "DistrictId": "02202",
        "Zone": "Batı Marmara",
        "Services": "00010000000000000000001000000000101",
        "Url": "havsa-2098"
      },
      {
        "Id": 1189,
        "StationName": "HAVSA PETROL OFISI",
        "Address": "VAROŞ MAH.DELİGAVUR MEVKİ KÜME EVLER NO:2, HAVSA, Edirne",
        "CityName": "Edirne",
        "DistrictName": "HAVSA",
        "PhoneNumber": "02843361222",
        "Latitude": 41.540127,
        "Longitude": 26.8175921,
        "CityId": "22",
        "DistrictId": "02202",
        "Zone": "Batı Marmara",
        "Services": "10010001100000100001101000000010101",
        "Url": "havsa-petrol-ofisi-1189"
      },
      {
        "Id": 1749,
        "StationName": "İPSALA ÇIKIŞI PETROL OFİSİ",
        "Address": "YENİCEÇİFTLİK KÖYÜ YENİCEÇİFTLİK (KÜME EVLER) NO:89/0, KEŞAN, Edirne",
        "CityName": "Edirne",
        "DistrictName": "KEŞAN",
        "Latitude": 40.87524,
        "Longitude": 26.564237,
        "CityId": "22",
        "DistrictId": "02204",
        "Zone": "Batı Marmara",
        "Services": "00010000000000000000000000000000101",
        "Url": "ipsala-cikisi-petrol-ofisi-1749"
      },
      {
        "Id": 1538,
        "StationName": "İPSALA YOLU PETROL OFISI",
        "Address": "SARPDERE KÖYÜ NO:235, İPSALA, Edirne",
        "CityName": "Edirne",
        "DistrictName": "İPSALA",
        "Latitude": 40.88025,
        "Longitude": 26.41878,
        "CityId": "22",
        "DistrictId": "02203",
        "Zone": "Batı Marmara",
        "Services": "00010100000000000001001000000000101",
        "Url": "ipsala-yolu-petrol-ofisi-1538"
      },
      {
        "Id": 2104,
        "StationName": "İPSALA-M",
        "Address": "LONDRA ASFALTI ÜZERİ, İPSALA, Edirne",
        "CityName": "Edirne",
        "DistrictName": "İPSALA",
        "Latitude": 40.9083173,
        "Longitude": 26.3719585,
        "CityId": "22",
        "DistrictId": "02203",
        "Zone": "Batı Marmara",
        "Services": "00010000000000000000001000000000011",
        "Url": "ipsala-m-2104"
      },
      {
        "Id": 1594,
        "StationName": "KAPIKULE GIRIŞI PETROL OFISI",
        "Address": "KEMAL KÖY KAPIKULE YOLU SOKAK NO:58/2-1 EDIRNE  EDİRNE, MERKEZ, Edirne",
        "CityName": "Edirne",
        "DistrictName": "MERKEZ",
        "PhoneNumber": "02842382422",
        "Latitude": 41.711742,
        "Longitude": 26.375462,
        "CityId": "22",
        "DistrictId": "02200",
        "Zone": "Batı Marmara",
        "Services": "00110001100000110000011011000000101",
        "Url": "kapikule-girisi-petrol-ofisi-1594"
      },
      {
        "Id": 134,
        "StationName": "KEŞAN AĞADAYI TESISLERI PETROL OFISI",
        "Address": "BÜYÜK CAMİİ MAHALLESİ EFES BULVARI NO:46, KEŞAN, Edirne",
        "CityName": "Edirne",
        "DistrictName": "KEŞAN",
        "PhoneNumber": "02847149740",
        "Latitude": 40.856135,
        "Longitude": 26.621451,
        "CityId": "22",
        "DistrictId": "02204",
        "Zone": "Batı Marmara",
        "Services": "10010101100000110001111011001110101",
        "Url": "kesan-agadayi-tesisleri-petrol-ofisi-134"
      },
      {
        "Id": 137,
        "StationName": "KEŞAN ÇIKIŞI İPSALA YÖNÜ PETROL OFISI",
        "Address": "İSTASYON MAHALLESİ ŞEHİT ASTSB. ÖMER HALİSDEMİR BULVARI NO:4, KEŞAN, Edirne",
        "CityName": "Edirne",
        "DistrictName": "KEŞAN",
        "PhoneNumber": "02847146407",
        "Latitude": 40.8754892,
        "Longitude": 26.6070804,
        "CityId": "22",
        "DistrictId": "02204",
        "Zone": "Batı Marmara",
        "Services": "10010100100000110011101011000110101",
        "Url": "kesan-cikisi-ipsala-yonu-petrol-ofisi-137"
      },
      {
        "Id": 135,
        "StationName": "KEŞAN ESKI TERMINAL PETROL OFISI",
        "Address": "BÜYÜK CAMİ MAHALLESİ. ESKİ TERMİNAL, KEŞAN, Edirne",
        "CityName": "Edirne",
        "DistrictName": "KEŞAN",
        "PhoneNumber": "02847141363",
        "Latitude": 40.855678,
        "Longitude": 26.631037,
        "CityId": "22",
        "DistrictId": "02204",
        "Zone": "Batı Marmara",
        "Services": "10010000100000100000101000001010101",
        "Url": "kesan-eski-terminal-petrol-ofisi-135"
      },
      {
        "Id": 885,
        "StationName": "KEŞAN GIRIŞI GELIBOLU YÖNÜ PETROL OFISI",
        "Address": "İZZETİYE KÖYÜ ÇANAKKALE YOLU ÜZERİ 3.KM, KEŞAN, Edirne",
        "CityName": "Edirne",
        "DistrictName": "KEŞAN",
        "PhoneNumber": "02847311301",
        "Latitude": 40.825557,
        "Longitude": 26.640846,
        "CityId": "22",
        "DistrictId": "02204",
        "Zone": "Batı Marmara",
        "Services": "10010100100000100001111010000110101",
        "Url": "kesan-girisi-gelibolu-yonu-petrol-ofisi-885"
      },
      {
        "Id": 140,
        "StationName": "KEŞAN GIRIŞI İSTANBUL YÖNÜ PETROL OFISI",
        "Address": "LONDRA ASFALTI LEŞLİDERE MEVKİİ YENİMUHACIR BELDESİ, KEŞAN, Edirne",
        "CityName": "Edirne",
        "DistrictName": "KEŞAN",
        "PhoneNumber": "02847631085",
        "Latitude": 40.87518,
        "Longitude": 26.674251,
        "CityId": "22",
        "DistrictId": "02204",
        "Zone": "Batı Marmara",
        "Services": "00010000000000100000111001000010101",
        "Url": "kesan-girisi-istanbul-yonu-petrol-ofisi-140"
      },
      {
        "Id": 2099,
        "StationName": "KIREMITLIK",
        "Address": "İSPAT CAMİİ MAHALLESİ KİREMİTLİK MEVKİİ BÖLGE TRAFİK İSTASY, KEŞAN, Edirne",
        "CityName": "Edirne",
        "DistrictName": "KEŞAN",
        "Latitude": 40.8702235,
        "Longitude": 26.6293318,
        "CityId": "22",
        "DistrictId": "02204",
        "Zone": "Batı Marmara",
        "Services": "00010000000000000000001000000000011",
        "Url": "kiremitlik-2099"
      },
      {
        "Id": 1536,
        "StationName": "KOLAĞILI PETROL OFISI",
        "Address": "KOLAĞILI MEVKİİ E-5 YOLU ÜZERİ İSKENDER KÖYÜ, MERKEZ, Edirne",
        "CityName": "Edirne",
        "DistrictName": "MERKEZ",
        "Latitude": 41.587055,
        "Longitude": 26.707122,
        "CityId": "22",
        "DistrictId": "02200",
        "Zone": "Batı Marmara",
        "Services": "10010000100000100001011001000000101",
        "Url": "kolagili-petrol-ofisi-1536"
      },
      {
        "Id": 1124,
        "StationName": "LALAPAŞA PETROL OFISI",
        "Address": "MERKEZ MAH. CENGİZ TOPEL CAD. NO:15, LALAPAŞA, Edirne",
        "CityName": "Edirne",
        "DistrictName": "LALAPAŞA",
        "PhoneNumber": "02843214023",
        "Latitude": 41.83867,
        "Longitude": 26.742528,
        "CityId": "22",
        "DistrictId": "02205",
        "Zone": "Batı Marmara",
        "Services": "00010000100000100001101000000010101",
        "Url": "lalapasa-petrol-ofisi-1124"
      },
      {
        "Id": 2103,
        "StationName": "MERIÇ",
        "Address": "KAVAKLI KÖYÜ, MERİÇ, Edirne",
        "CityName": "Edirne",
        "DistrictName": "MERİÇ",
        "Latitude": 41.230668,
        "Longitude": 26.5180281,
        "CityId": "22",
        "DistrictId": "02206",
        "Zone": "Batı Marmara",
        "Services": "00010000000000000000001000000000101",
        "Url": "meric-2103"
      },
      {
        "Id": 138,
        "StationName": "MERIÇ ÇIKIŞI PETROL OFISI",
        "Address": "B.DOĞANCA MAH. AHMET TOSUN CAD. NO: 74, MERİÇ, Edirne",
        "CityName": "Edirne",
        "DistrictName": "MERİÇ",
        "Latitude": 41.196688,
        "Longitude": 26.4249788,
        "CityId": "22",
        "DistrictId": "02206",
        "Zone": "Batı Marmara",
        "Services": "00010000100000000000000000000000101",
        "Url": "meric-cikisi-petrol-ofisi-138"
      },
      {
        "Id": 1553,
        "StationName": "MERIÇ PETROL OFISI",
        "Address": "B.DOĞANCA MAH. AHMET TOSUN CAD. NO:29, MERİÇ, Edirne",
        "CityName": "Edirne",
        "DistrictName": "MERİÇ",
        "Latitude": 41.193012,
        "Longitude": 26.421426,
        "CityId": "22",
        "DistrictId": "02206",
        "Zone": "Batı Marmara",
        "Services": "00010000100000100000011000000100101",
        "Url": "meric-petrol-ofisi-1553"
      },
      {
        "Id": 578,
        "StationName": "PAŞAYIĞIT PETROL OFISI",
        "Address": "PAŞAKÖY KÖYÜ UYGAR AKARYAKIT BLOK NO:443A IÇ KAPI NO:1, İPSALA, Edirne",
        "CityName": "Edirne",
        "DistrictName": "İPSALA",
        "PhoneNumber": "02846966620",
        "Latitude": 40.856093,
        "Longitude": 26.320456,
        "CityId": "22",
        "DistrictId": "02203",
        "Zone": "Batı Marmara",
        "Services": "00010101100000100000101000000110101",
        "Url": "pasayigit-petrol-ofisi-578"
      },
      {
        "Id": 1695,
        "StationName": "PAŞAYİĞİT PETROL OFİSİ",
        "Address": "PAŞAYİĞİT MAH. YİĞİT BEY BUL.  NO: 119-2, KEŞAN, Edirne",
        "CityName": "Edirne",
        "DistrictName": "KEŞAN",
        "Latitude": 40.951942,
        "Longitude": 26.637137,
        "CityId": "22",
        "DistrictId": "02204",
        "Zone": "Batı Marmara",
        "Services": "00010000000000000000001001000000101",
        "Url": "pasayigit-petrol-ofisi-1695"
      },
      {
        "Id": 1043,
        "StationName": "ŞÜKRÜPAŞA PETROL OFISI",
        "Address": "ŞÜKRÜ PAŞA MAHALLESİ KIYIK CADDESİ NO:254, MERKEZ, Edirne",
        "CityName": "Edirne",
        "DistrictName": "MERKEZ",
        "PhoneNumber": "02842136210",
        "Latitude": 41.68068,
        "Longitude": 26.581659,
        "CityId": "22",
        "DistrictId": "02200",
        "Zone": "Batı Marmara",
        "Services": "10010001100000110001101011000011101",
        "Url": "sukrupasa-petrol-ofisi-1043"
      },
      {
        "Id": 693,
        "StationName": "UZUNKÖPRÜ ÇIKIŞI PETROL OFISI",
        "Address": "CUMHURİYET MAH. 19 MAYIS CAD. NO:74, UZUNKÖPRÜ, Edirne",
        "CityName": "Edirne",
        "DistrictName": "UZUNKÖPRÜ",
        "PhoneNumber": "02845135333",
        "Latitude": 41.2406659,
        "Longitude": 26.6849615,
        "CityId": "22",
        "DistrictId": "02208",
        "Zone": "Batı Marmara",
        "Services": "10010000100000100001101000000010101",
        "Url": "uzunkopru-cikisi-petrol-ofisi-693"
      },
      {
        "Id": 1658,
        "StationName": "UZUNKÖPRÜ HAVSA YOLU 2 PETROL OFISI",
        "Address": "BAKIŞLAR KÖYÜ NO:116   EDİRNE, HAVSA, Edirne",
        "CityName": "Edirne",
        "DistrictName": "HAVSA",
        "Latitude": 41.4389,
        "Longitude": 26.81545,
        "CityId": "22",
        "DistrictId": "02202",
        "Zone": "Batı Marmara",
        "Services": "10010100100000100001101000000010100",
        "Url": "uzunkopru-havsa-yolu-2-petrol-ofisi-1658"
      },
      {
        "Id": 1115,
        "StationName": "YENIKARPUZLU PETROL OFISI",
        "Address": "FEVZİ ÇAKMAK MAHALLESİ DOĞAN SEYFİ CADDESİ NO:84/2, İPSALA, Edirne",
        "CityName": "Edirne",
        "DistrictName": "İPSALA",
        "Latitude": 40.840788,
        "Longitude": 26.301707,
        "CityId": "22",
        "DistrictId": "02203",
        "Zone": "Batı Marmara",
        "Services": "10010101100000100001111010000110101",
        "Url": "yenikarpuzlu-petrol-ofisi-1115"
      }
    ],
    "Latitude": 41.225147539999995,
    "Longitude": 26.566739594285714
  },
  {
    "CityId": "35",
    "Values": [
      {
        "Id": 785,
        "StationName": "1.SANAYI PETROL OFISI",
        "Address": "1580. SOK. NO:202 1. SANAYİ SİTESİ, KONAK, İzmir",
        "CityName": "İzmir",
        "DistrictName": "KONAK",
        "PhoneNumber": "02324338133",
        "Latitude": 38.431297,
        "Longitude": 27.180284,
        "CityId": "35",
        "DistrictId": "03522",
        "Zone": "Ege Bölgesi",
        "Services": "00010000100000101000101000000010101",
        "Url": "1-sanayi-petrol-ofisi-785"
      },
      {
        "Id": 1577,
        "StationName": "AKÇAY - PETROL OFISI",
        "Address": "DOKUZ EYLÜL MAHALLESİ AKÇAY CAD. NO:243, GAZİEMİR, İzmir",
        "CityName": "İzmir",
        "DistrictName": "GAZİEMİR",
        "Latitude": 38.316234,
        "Longitude": 27.141285,
        "CityId": "35",
        "DistrictId": "03581",
        "Zone": "Acente İstasyonları",
        "Services": "10010100001011010011101111010010101",
        "Url": "akcay-petrol-ofisi-1577"
      },
      {
        "Id": 1178,
        "StationName": "ALIAĞA BELEDIYESI PETROL OFISI",
        "Address": "SİTELER MAH. HÜRRİYET CAD. NO.111, ALİAĞA, İzmir",
        "CityName": "İzmir",
        "DistrictName": "ALİAĞA",
        "Latitude": 38.790378,
        "Longitude": 26.971065,
        "CityId": "35",
        "DistrictId": "03501",
        "Zone": "Ege Bölgesi",
        "Services": "10010101100000110001011001000001101",
        "Url": "aliaga-belediyesi-petrol-ofisi-1178"
      },
      {
        "Id": 1557,
        "StationName": "ALOSBI PETROL OFISI",
        "Address": "ÇORAKLAR MAH. 5000/1 SK. NO:2/1/1 ALİAĞA OSB, ALİAĞA, İzmir",
        "CityName": "İzmir",
        "DistrictName": "ALİAĞA",
        "Latitude": 38.812119,
        "Longitude": 27.036684,
        "CityId": "35",
        "DistrictId": "03501",
        "Zone": "Ege Bölgesi",
        "Services": "10010101110000010001101011000111101",
        "Url": "alosbi-petrol-ofisi-1557"
      },
      {
        "Id": 245,
        "StationName": "ANADOLU CADDESI PETROL OFISI",
        "Address": "ANADOLU CAD.NO. 760, ÇİĞLİ, İzmir",
        "CityName": "İzmir",
        "DistrictName": "ÇİĞLİ",
        "PhoneNumber": "02323295588",
        "Latitude": 38.489412,
        "Longitude": 27.070158,
        "CityId": "35",
        "DistrictId": "03580",
        "Zone": "Ege Bölgesi",
        "Services": "00010000000000001101101100000010101",
        "Url": "anadolu-caddesi-petrol-ofisi-245"
      },
      {
        "Id": 1317,
        "StationName": "ARMUTLU PETROL OFISI",
        "Address": "85.YIL CUMHURİYET MAH. ARMUTLU İZMİR CAD. 76, KEMALPAŞA, İzmir",
        "CityName": "İzmir",
        "DistrictName": "KEMALPAŞA",
        "PhoneNumber": "02328867203",
        "Latitude": 38.408755,
        "Longitude": 27.522921,
        "CityId": "35",
        "DistrictId": "03509",
        "Zone": "Ege Bölgesi",
        "Services": "00010000100000000001101011000010101",
        "Url": "armutlu-petrol-ofisi-1317"
      },
      {
        "Id": 1303,
        "StationName": "AYAKKABICILAR SITESI PETROL OFISI",
        "Address": "EGEMENLİK MAH 6133/1 SOK NO:2 A, BORNOVA, İzmir",
        "CityName": "İzmir",
        "DistrictName": "BORNOVA",
        "Latitude": 38.429819,
        "Longitude": 27.232032,
        "CityId": "35",
        "DistrictId": "03585",
        "Zone": "Ege Bölgesi",
        "Services": "00010000100000010001001001000001101",
        "Url": "ayakkabicilar-sitesi-petrol-ofisi-1303"
      },
      {
        "Id": 521,
        "StationName": "AYRANCILAR PETROL OFISI",
        "Address": "INÖNÜ MAHALLESİ IZMİR-AYDIN CADDESİ NO:21-A, TORBALI, İzmir",
        "CityName": "İzmir",
        "DistrictName": "TORBALI",
        "PhoneNumber": "02328546109",
        "Latitude": 38.237187,
        "Longitude": 27.28423,
        "CityId": "35",
        "DistrictId": "03518",
        "Zone": "Ege Bölgesi",
        "Services": "00010000000000000101101001000010101",
        "Url": "ayrancilar-petrol-ofisi-521"
      },
      {
        "Id": 834,
        "StationName": "BAĞYURDU 2 PETROL OFISI",
        "Address": "MUSTAFA ALİ SEVİNÇ CAD. 1/1 BAĞYURDU ESKİ BELEDİYE GARAJI İÇ, KEMALPAŞA, İzmir",
        "CityName": "İzmir",
        "DistrictName": "KEMALPAŞA",
        "PhoneNumber": "02328841640",
        "Latitude": 38.416855,
        "Longitude": 27.636486,
        "CityId": "35",
        "DistrictId": "03509",
        "Zone": "Ege Bölgesi",
        "Services": "00000000000000000000000000000000100",
        "Url": "bagyurdu-2-petrol-ofisi-834"
      },
      {
        "Id": 1033,
        "StationName": "BAĞYURDU ORGANIZE PETROL OFISI",
        "Address": "HALİLBEYLİ MAH. İZMİR ANKARA CAD. NO: 789 İÇ KAPI NO: 1, KEMALPAŞA, İzmir",
        "CityName": "İzmir",
        "DistrictName": "KEMALPAŞA",
        "Latitude": 38.487862,
        "Longitude": 27.626984,
        "CityId": "35",
        "DistrictId": "03509",
        "Zone": "Ege Bölgesi",
        "Services": "00010000000000010001001011000000101",
        "Url": "bagyurdu-organize-petrol-ofisi-1033"
      },
      {
        "Id": 237,
        "StationName": "BAĞYURDU PETROL OFISI",
        "Address": "KEMAL ATATÜRK MAH. BAĞYURDU İZMİR CAD. NO:166/A, KEMALPAŞA, İzmir",
        "CityName": "İzmir",
        "DistrictName": "KEMALPAŞA",
        "PhoneNumber": "02328841640",
        "Latitude": 38.413998,
        "Longitude": 27.622707,
        "CityId": "35",
        "DistrictId": "03509",
        "Zone": "Ege Bölgesi",
        "Services": "00010000100000000001101000000010101",
        "Url": "bagyurdu-petrol-ofisi-237"
      },
      {
        "Id": 2262,
        "StationName": "BAKIRÇAY",
        "Address": "ISLAMSARAY MAHALLESİ NO:5 KINIK ASFALTI, BERGAMA, İzmir",
        "CityName": "İzmir",
        "DistrictName": "BERGAMA",
        "PhoneNumber": "05448555227",
        "Latitude": 39.1168561,
        "Longitude": 27.2008409,
        "CityId": "35",
        "DistrictId": "03503",
        "Zone": "Ege Bölgesi",
        "Services": "00010000000000000000101000000010101",
        "Url": "bakircay-2262"
      },
      {
        "Id": 2294,
        "StationName": "BALATCIK",
        "Address": "ANADOLU CADDESİ NO:1319 BALATÇIK, ÇİĞLİ, İzmir",
        "CityName": "İzmir",
        "DistrictName": "ÇİĞLİ",
        "Latitude": 38.5134448,
        "Longitude": 27.0437723,
        "CityId": "35",
        "DistrictId": "03580",
        "Zone": "Ege Bölgesi",
        "Services": "00010000000000000000001000000000011",
        "Url": "balatcik-2294"
      },
      {
        "Id": 2637,
        "StationName": "BAYINDIR ÇEVRE YOLU PETROL OFİSİ",
        "Address": "DEMİRCİLİK MAH. CELAL BAYAR BULVARI NO:38, BAYINDIR, İzmir",
        "CityName": "İzmir",
        "DistrictName": "BAYINDIR",
        "Latitude": 38.21459,
        "Longitude": 27.65956,
        "CityId": "35",
        "DistrictId": "03502",
        "Zone": "Ege Bölgesi",
        "Services": "00000000000000000000101001000010100",
        "Url": "bayindir-cevre-yolu-petrol-ofisi-2637"
      },
      {
        "Id": 1661,
        "StationName": "BAYINDIR PETROL OFISI",
        "Address": "KARAVELILER KÖYÜ KÖYÜ IZMIR  İZMİR, BAYINDIR, İzmir",
        "CityName": "İzmir",
        "DistrictName": "BAYINDIR",
        "Latitude": 38.192249,
        "Longitude": 27.5341,
        "CityId": "35",
        "DistrictId": "03502",
        "Zone": "Ege Bölgesi",
        "Services": "00010000100001100001101011000010101",
        "Url": "bayindir-petrol-ofisi-1661"
      },
      {
        "Id": 1408,
        "StationName": "BAYRAKLI PETROL OFISI",
        "Address": "ADALET MAH. ANADOLU CAD. NO:32/10, BAYRAKLI, İzmir",
        "CityName": "İzmir",
        "DistrictName": "BAYRAKLI",
        "PhoneNumber": "02324616061",
        "Latitude": 38.45121,
        "Longitude": 27.171432,
        "CityId": "35",
        "DistrictId": "03586",
        "Zone": "Ege Bölgesi",
        "Services": "00010000000010000001001001000000101",
        "Url": "bayrakli-petrol-ofisi-1408"
      },
      {
        "Id": 2267,
        "StationName": "BEGOS PETROL OFİSİ",
        "Address": "BUCA OSB MAHALLESİ YAHYA KEMAL BEYATLI CADDESİ NO:130, BUCA, İzmir",
        "CityName": "İzmir",
        "DistrictName": "BUCA",
        "PhoneNumber": "02126050637",
        "Latitude": 38.3946884,
        "Longitude": 27.2037623,
        "CityId": "35",
        "DistrictId": "03520",
        "Zone": "Acente İstasyonları",
        "Services": "00010000100000010000101001000010101",
        "Url": "begos-petrol-ofisi-2267"
      },
      {
        "Id": 1728,
        "StationName": "BELEVİ YOLU PETROL OFİSİ",
        "Address": "İBNİ MELEK MAH. SELÇUK CAD. NO:32, TİRE, İzmir",
        "CityName": "İzmir",
        "DistrictName": "TİRE",
        "Latitude": 38.084218,
        "Longitude": 27.713511,
        "CityId": "35",
        "DistrictId": "03517",
        "Zone": "Ege Bölgesi",
        "Services": "00000000100000000000101011000010100",
        "Url": "belevi-yolu-petrol-ofisi-1728"
      },
      {
        "Id": 2265,
        "StationName": "BELKAHVE",
        "Address": "ANKARA ASFALTI BELKAHVE MEVKİİ NO:280, BORNOVA, İzmir",
        "CityName": "İzmir",
        "DistrictName": "BORNOVA",
        "Latitude": 38.4546194,
        "Longitude": 27.3122751,
        "CityId": "35",
        "DistrictId": "03585",
        "Zone": "Ege Bölgesi",
        "Services": "00010000100000000001001001000000101",
        "Url": "belkahve-2265"
      },
      {
        "Id": 2263,
        "StationName": "BERGAMA",
        "Address": "ERTUĞRUL MAHALLESİ CUMHURİYET CADDESİ NO:3, BERGAMA, İzmir",
        "CityName": "İzmir",
        "DistrictName": "BERGAMA",
        "Latitude": 39.1164104,
        "Longitude": 27.1765362,
        "CityId": "35",
        "DistrictId": "03503",
        "Zone": "Ege Bölgesi",
        "Services": "00010000000000000000101000000010101",
        "Url": "bergama-2263"
      },
      {
        "Id": 1493,
        "StationName": "BERGAMA - YENIKENT PETROL OFISI",
        "Address": "YUNUS EMRE MAHALLESİ İZMİR CADDESİ NO:45 YENİKENT, BERGAMA, İzmir",
        "CityName": "İzmir",
        "DistrictName": "BERGAMA",
        "Latitude": 39.006671,
        "Longitude": 27.063316,
        "CityId": "35",
        "DistrictId": "03503",
        "Zone": "Ege Bölgesi",
        "Services": "10010100000000010001011011000000101",
        "Url": "bergama-yenikent-petrol-ofisi-1493"
      },
      {
        "Id": 2261,
        "StationName": "BERGAMA ÇEVREYOLU",
        "Address": "FATİH MAHALLESİ İZMİR ÇANAKKALE KARAYOLU BULVARI NO:545, BERGAMA, İzmir",
        "CityName": "İzmir",
        "DistrictName": "BERGAMA",
        "Latitude": 39.0697801,
        "Longitude": 27.1162945,
        "CityId": "35",
        "DistrictId": "03503",
        "Zone": "Ege Bölgesi",
        "Services": "00010000000000000000101000000010011",
        "Url": "bergama-cevreyolu-2261"
      },
      {
        "Id": 1437,
        "StationName": "BERGAMA MERKEZ PETROL OFISI",
        "Address": "BAHÇELIEVLER MAH. ATATÜRK BLV. 184, BERGAMA, İzmir",
        "CityName": "İzmir",
        "DistrictName": "BERGAMA",
        "PhoneNumber": "02323367090",
        "Latitude": 39.095302,
        "Longitude": 27.141944,
        "CityId": "35",
        "DistrictId": "03503",
        "Zone": "Ege Bölgesi",
        "Services": "10010100110010010011101011001110101",
        "Url": "bergama-merkez-petrol-ofisi-1437"
      },
      {
        "Id": 982,
        "StationName": "BERGAMA PETROL OFISI",
        "Address": "FATIH MAH. İZMİR ÇANAKKALE YOLU CADDESİ NO:549, BERGAMA, İzmir",
        "CityName": "İzmir",
        "DistrictName": "BERGAMA",
        "PhoneNumber": "02326310913",
        "Latitude": 39.072025,
        "Longitude": 27.116959,
        "CityId": "35",
        "DistrictId": "03503",
        "Zone": "Ege Bölgesi",
        "Services": "00010000100000010000101011000010101",
        "Url": "bergama-petrol-ofisi-982"
      },
      {
        "Id": 613,
        "StationName": "BEYDAĞ PETROL OFISI",
        "Address": "ATATÜRK MH. ÖDEMIS CD. NO:108, BEYDAĞ, İzmir",
        "CityName": "İzmir",
        "DistrictName": "BEYDAĞ",
        "PhoneNumber": "02325926011",
        "Latitude": 38.091178,
        "Longitude": 28.211721,
        "CityId": "35",
        "DistrictId": "03504",
        "Zone": "Ege Bölgesi",
        "Services": "00010000000000100001001000000000101",
        "Url": "beydag-petrol-ofisi-613"
      },
      {
        "Id": 1467,
        "StationName": "BORNOVA PETROL OFISI",
        "Address": "YEDİ EYLÜL MAH. AYDIN CAD. 83, TORBALI, İzmir",
        "CityName": "İzmir",
        "DistrictName": "TORBALI",
        "Latitude": 38.182537,
        "Longitude": 27.354169,
        "CityId": "35",
        "DistrictId": "03518",
        "Zone": "Ege Bölgesi",
        "Services": "00010000000000010000101011000010101",
        "Url": "bornova-petrol-ofisi-1467"
      },
      {
        "Id": 1642,
        "StationName": "BORNOVA PETROL OFİSİ",
        "Address": "KAZIMDİRİK MAH. ANKARA CAD. NO:235, BORNOVA, İzmir",
        "CityName": "İzmir",
        "DistrictName": "BORNOVA",
        "Latitude": 38.4587,
        "Longitude": 27.2093,
        "CityId": "35",
        "DistrictId": "03585",
        "Zone": "Acente İstasyonları",
        "Services": "10010100100001010010101011010010101",
        "Url": "bornova-petrol-ofisi-1642"
      },
      {
        "Id": 2266,
        "StationName": "BORNOVA SANAYI",
        "Address": "KAZIM DİRİK MAHALLESİ 364 SOKAĞI NO:6, BORNOVA, İzmir",
        "CityName": "İzmir",
        "DistrictName": "BORNOVA",
        "Latitude": 38.4447189,
        "Longitude": 27.1997992,
        "CityId": "35",
        "DistrictId": "03585",
        "Zone": "Ege Bölgesi",
        "Services": "00010000100000000001001001000000101",
        "Url": "bornova-sanayi-2266"
      },
      {
        "Id": 1168,
        "StationName": "BOZYAKA PETROL OFISI",
        "Address": "HALİDE EDİP ADIVAR CADDESİ NO:164 BOZYAKA, KARABAĞLAR, İzmir",
        "CityName": "İzmir",
        "DistrictName": "KARABAĞLAR",
        "Latitude": 38.397196,
        "Longitude": 27.131233,
        "CityId": "35",
        "DistrictId": "03587",
        "Zone": "Ege Bölgesi",
        "Services": "00010000000000000101101000000010101",
        "Url": "bozyaka-petrol-ofisi-1168"
      },
      {
        "Id": 2277,
        "StationName": "BOZYAKA PETROL OFİSİ",
        "Address": "ÇALIKUŞU MAH. HALİDE EDİP ADIVAR CAD. BP BLOK NO:150, KARABAĞLAR, İzmir",
        "CityName": "İzmir",
        "DistrictName": "KARABAĞLAR",
        "PhoneNumber": "02126050637",
        "Latitude": 38.3982,
        "Longitude": 27.1294186,
        "CityId": "35",
        "DistrictId": "03587",
        "Zone": "Acente İstasyonları",
        "Services": "00010000000000010000101001000010101",
        "Url": "bozyaka-petrol-ofisi-2277"
      },
      {
        "Id": 734,
        "StationName": "BUCA PETROL OFISI",
        "Address": "254 SOK. NO:202 KOZAGAC, BUCA, İzmir",
        "CityName": "İzmir",
        "DistrictName": "BUCA",
        "PhoneNumber": "02324408900",
        "Latitude": 38.371938,
        "Longitude": 27.166392,
        "CityId": "35",
        "DistrictId": "03520",
        "Zone": "Ege Bölgesi",
        "Services": "00010000000000010001101111000010101",
        "Url": "buca-petrol-ofisi-734"
      },
      {
        "Id": 2285,
        "StationName": "BURUNCUK",
        "Address": "YILDIRIM MAHALLESİ ÇANAKKALE ASFALTI CADDESİ NO:1, MENEMEN, İzmir",
        "CityName": "İzmir",
        "DistrictName": "MENEMEN",
        "Latitude": 38.6692214,
        "Longitude": 27.0227415,
        "CityId": "35",
        "DistrictId": "03513",
        "Zone": "Ege Bölgesi",
        "Services": "00010000000000000000001000000000010",
        "Url": "buruncuk-2285"
      },
      {
        "Id": 247,
        "StationName": "ÇAMBEL PETROL OFISI",
        "Address": "ÇAMBEL KÖYÜ MEVKİİ ANKARA ASFALTI 35. KM., KEMALPAŞA, İzmir",
        "CityName": "İzmir",
        "DistrictName": "KEMALPAŞA",
        "PhoneNumber": "02328809009",
        "Latitude": 38.449807,
        "Longitude": 27.500774,
        "CityId": "35",
        "DistrictId": "03509",
        "Zone": "Ege Bölgesi",
        "Services": "00010000100000010001101011000010101",
        "Url": "cambel-petrol-ofisi-247"
      },
      {
        "Id": 2273,
        "StationName": "ÇAMLI",
        "Address": "SEFERİHİSAR CADDESİ NO:11 ÇAMLI KÖYÜ, GÜZELBAHÇE, İzmir",
        "CityName": "İzmir",
        "DistrictName": "GÜZELBAHÇE",
        "Latitude": 38.318,
        "Longitude": 26.8608364,
        "CityId": "35",
        "DistrictId": "03524",
        "Zone": "Ege Bölgesi",
        "Services": "00010000000000000000001000000000011",
        "Url": "camli-2273"
      },
      {
        "Id": 2554,
        "StationName": "ÇANDARLI",
        "Address": "ÇANDARLI KÖYÜ KOKARAT BAĞLARI, MERKEZ, İzmir",
        "CityName": "İzmir",
        "DistrictName": "MERKEZ",
        "Latitude": 38.9389445,
        "Longitude": 26.9390721,
        "CityId": "35",
        "DistrictId": "03500",
        "Zone": "Ege Bölgesi",
        "Services": "00010000000000000000001000000000101",
        "Url": "candarli-2554"
      },
      {
        "Id": 2618,
        "StationName": "CEMALETTİN AKSU CADDESİ PETROL OFİSİ",
        "Address": "B. HAYRETTİNPAŞA MH. CEMALETTİN AKSU CAD. NO:84, ALİAĞA, İzmir",
        "CityName": "İzmir",
        "DistrictName": "ALİAĞA",
        "Latitude": 38.711648,
        "Longitude": 26.987469,
        "CityId": "35",
        "DistrictId": "03501",
        "Zone": "Ege Bölgesi",
        "Services": "00000000000000000000101001000010100",
        "Url": "cemalettin-aksu-caddesi-petrol-ofisi-2618"
      },
      {
        "Id": 2293,
        "StationName": "ÇEŞME",
        "Address": "IZMİR CADDESİ ALAÇATI, ÇEŞME, İzmir",
        "CityName": "İzmir",
        "DistrictName": "ÇEŞME",
        "PhoneNumber": "02327168202",
        "Latitude": 38.3019647,
        "Longitude": 26.3696124,
        "CityId": "35",
        "DistrictId": "03505",
        "Zone": "Ege Bölgesi",
        "Services": "00010000000000000000001001000000101",
        "Url": "cesme-2293"
      },
      {
        "Id": 239,
        "StationName": "ÇEŞME ASFALTI PETROL OFISI",
        "Address": "ALAÇATI MAH. ÇEŞME ASFALTI CAD. NO:76, ÇEŞME, İzmir",
        "CityName": "İzmir",
        "DistrictName": "ÇEŞME",
        "Latitude": 38.301781,
        "Longitude": 26.37006,
        "CityId": "35",
        "DistrictId": "03505",
        "Zone": "Ege Bölgesi",
        "Services": "00010000000000100001101010000010101",
        "Url": "cesme-asfalti-petrol-ofisi-239"
      },
      {
        "Id": 1620,
        "StationName": "ÇEŞME ILICA PETROL OFISI",
        "Address": "FAHRETTİN PAŞA MAH. 2234 SK. NO:8/A, ÇEŞME, İzmir",
        "CityName": "İzmir",
        "DistrictName": "ÇEŞME",
        "Latitude": 38.318197,
        "Longitude": 26.333732,
        "CityId": "35",
        "DistrictId": "03505",
        "Zone": "Ege Bölgesi",
        "Services": "00010000000001010000101011000010101",
        "Url": "cesme-ilica-petrol-ofisi-1620"
      },
      {
        "Id": 904,
        "StationName": "ÇEVRE YOLU / LIMONTEPE 1 PETROL OFISI",
        "Address": "İZMİR- ÇEŞME ÇEVRE YOLU GAZİEMİR- BALÇOVA YÖNÜ (KUZEY) LİMON, BALÇOVA, İzmir",
        "CityName": "İzmir",
        "DistrictName": "BALÇOVA",
        "PhoneNumber": "02322593130",
        "Latitude": 38.374677,
        "Longitude": 27.075923,
        "CityId": "35",
        "DistrictId": "03523",
        "Zone": "Ege Bölgesi",
        "Services": "00010000000100100001101011000010101",
        "Url": "cevre-yolu-limontepe-1-petrol-ofisi-904"
      },
      {
        "Id": 905,
        "StationName": "ÇEVRE YOLU / LIMONTEPE 2 PETROL OFISI",
        "Address": "İZMİR-ÇEŞME ÇEVREYOLU BALÇOVA-GAZİEMİR GÜZERGAHI LİMONTEPE M, BALÇOVA, İzmir",
        "CityName": "İzmir",
        "DistrictName": "BALÇOVA",
        "PhoneNumber": "02322593130",
        "Latitude": 38.376056,
        "Longitude": 27.073279,
        "CityId": "35",
        "DistrictId": "03523",
        "Zone": "Ege Bölgesi",
        "Services": "00010000000000000001101011000010101",
        "Url": "cevre-yolu-limontepe-2-petrol-ofisi-905"
      },
      {
        "Id": 246,
        "StationName": "ÇIĞLI ATA SANAYI PETROL OFISI",
        "Address": "10006 SOKAK NO:42/A A.O.S.B., ÇİĞLİ, İzmir",
        "CityName": "İzmir",
        "DistrictName": "ÇİĞLİ",
        "PhoneNumber": "02323767655",
        "Latitude": 38.491745,
        "Longitude": 27.041259,
        "CityId": "35",
        "DistrictId": "03580",
        "Zone": "Ege Bölgesi",
        "Services": "00010000100000001001101001000010101",
        "Url": "cigli-ata-sanayi-petrol-ofisi-246"
      },
      {
        "Id": 2555,
        "StationName": "ÇIMENTAŞ",
        "Address": "KEMALPAŞA CADDESİ NO:17 IŞIKKENT, MERKEZ, İzmir",
        "CityName": "İzmir",
        "DistrictName": "MERKEZ",
        "Latitude": 38.4289176,
        "Longitude": 27.2173751,
        "CityId": "35",
        "DistrictId": "03500",
        "Zone": "Ege Bölgesi",
        "Services": "00010000000000000000001100000000011",
        "Url": "cimentas-2555"
      },
      {
        "Id": 2268,
        "StationName": "DIKILI",
        "Address": "SALİMBEY MAHALLESİ ÇANDARLI ÇALTITEPE, DİKİLİ, İzmir",
        "CityName": "İzmir",
        "DistrictName": "DİKİLİ",
        "Latitude": 39.0587708,
        "Longitude": 26.8871606,
        "CityId": "35",
        "DistrictId": "03506",
        "Zone": "Ege Bölgesi",
        "Services": "00010000100000000000001000000000010",
        "Url": "dikili-2268"
      },
      {
        "Id": 241,
        "StationName": "DIKILI 2 PETROL OFISI",
        "Address": "İSMET PAŞA MAHALLESİ YOL ÇATI MEVKİİ, DİKİLİ, İzmir",
        "CityName": "İzmir",
        "DistrictName": "DİKİLİ",
        "PhoneNumber": "02326716792",
        "Latitude": 39.080071,
        "Longitude": 26.921701,
        "CityId": "35",
        "DistrictId": "03506",
        "Zone": "Ege Bölgesi",
        "Services": "10010000100000100001101000000010101",
        "Url": "dikili-2-petrol-ofisi-241"
      },
      {
        "Id": 2269,
        "StationName": "DIKILI KAVŞAĞI",
        "Address": "CUMHURİYET MAHALLESİ İZMİR ÇANAKKALE CADDESİ NO:80, DİKİLİ, İzmir",
        "CityName": "İzmir",
        "DistrictName": "DİKİLİ",
        "Latitude": 39.0866421,
        "Longitude": 26.9167752,
        "CityId": "35",
        "DistrictId": "03506",
        "Zone": "Ege Bölgesi",
        "Services": "00010000100000010000001001000000101",
        "Url": "dikili-kavsagi-2269"
      },
      {
        "Id": 1652,
        "StationName": "DIKILI SALIHLERALTI PETROL OFISI",
        "Address": "SALİHLER MAH. İZMİR ÇANAKKALE CAD. NO:261/A   İZMİR, DİKİLİ, İzmir",
        "CityName": "İzmir",
        "DistrictName": "DİKİLİ",
        "Latitude": 39.1676,
        "Longitude": 26.8386,
        "CityId": "35",
        "DistrictId": "03506",
        "Zone": "Ege Bölgesi",
        "Services": "10010100100000100011001000000101101",
        "Url": "dikili-salihleralti-petrol-ofisi-1652"
      },
      {
        "Id": 2286,
        "StationName": "EFES",
        "Address": "ATATÜRK MAHALLESİ ATATÜRK CADDESİ NO:226, SELÇUK, İzmir",
        "CityName": "İzmir",
        "DistrictName": "SELÇUK",
        "Latitude": 37.9410084,
        "Longitude": 27.3647126,
        "CityId": "35",
        "DistrictId": "03516",
        "Zone": "Ege Bölgesi",
        "Services": "00010000000000000000001000000000011",
        "Url": "efes-2286"
      },
      {
        "Id": 1721,
        "StationName": "EGE ÜNİVERSİTESİ - PETROL OFİSİ",
        "Address": "ERZENE MAH. İSTANBUL CAD. NO: 6, BORNOVA, İzmir",
        "CityName": "İzmir",
        "DistrictName": "BORNOVA",
        "Latitude": 38.465836,
        "Longitude": 27.227686,
        "CityId": "35",
        "DistrictId": "03585",
        "Zone": "Ege Bölgesi",
        "Services": "00010000100000010001101111000010101",
        "Url": "ege-universitesi-petrol-ofisi-1721"
      },
      {
        "Id": 2275,
        "StationName": "ESKI IZMIR",
        "Address": "GÜNALTAY MAHALLESİ 4714 SOKAĞI NO:54, KARABAĞLAR, İzmir",
        "CityName": "İzmir",
        "DistrictName": "KARABAĞLAR",
        "PhoneNumber": "05318509333",
        "Latitude": 38.3796909,
        "Longitude": 27.1131275,
        "CityId": "35",
        "DistrictId": "03587",
        "Zone": "Ege Bölgesi",
        "Services": "00010000000000000000001001000000101",
        "Url": "eski-izmir-2275"
      },
      {
        "Id": 2276,
        "StationName": "FIRAT",
        "Address": "YEŞİLLİK CADDESİ NO:279, KARABAĞLAR, İzmir",
        "CityName": "İzmir",
        "DistrictName": "KARABAĞLAR",
        "Latitude": 38.3810171,
        "Longitude": 27.1351426,
        "CityId": "35",
        "DistrictId": "03587",
        "Zone": "Ege Bölgesi",
        "Services": "00010000000000000000001000000000010",
        "Url": "firat-2276"
      },
      {
        "Id": 243,
        "StationName": "FOÇA PETROL OFISI",
        "Address": "ATATÜRK MAHALLESİ DEĞİRMENCİK CADDESİ NO:6, FOÇA, İzmir",
        "CityName": "İzmir",
        "DistrictName": "FOÇA",
        "PhoneNumber": "02328121179",
        "Latitude": 38.665481,
        "Longitude": 26.75634,
        "CityId": "35",
        "DistrictId": "03507",
        "Zone": "Ege Bölgesi",
        "Services": "10010101100010100010001011000100101",
        "Url": "foca-petrol-ofisi-243"
      },
      {
        "Id": 1192,
        "StationName": "FOÇA YOLU PETROL OFISI",
        "Address": "HOROZGEDİĞİ MH. SANAYİ CD. NO:41/2, ALİAĞA, İzmir",
        "CityName": "İzmir",
        "DistrictName": "ALİAĞA",
        "Latitude": 38.735196,
        "Longitude": 26.934163,
        "CityId": "35",
        "DistrictId": "03501",
        "Zone": "Ege Bölgesi",
        "Services": "10010000100000100001101010000010101",
        "Url": "foca-yolu-petrol-ofisi-1192"
      },
      {
        "Id": 2272,
        "StationName": "GAZIEMIR MERKEZ",
        "Address": "DOKUZ EYLÜL MAHALLESİ AKÇAY CADDESİ NO:127, GAZİEMİR, İzmir",
        "CityName": "İzmir",
        "DistrictName": "GAZİEMİR",
        "Latitude": 38.3317921,
        "Longitude": 27.1353476,
        "CityId": "35",
        "DistrictId": "03581",
        "Zone": "Ege Bölgesi",
        "Services": "00010000000000000000001001000000101",
        "Url": "gaziemir-merkez-2272"
      },
      {
        "Id": 235,
        "StationName": "GAZIEMIR PETROL OFISI",
        "Address": "AKCAY CAD. NO.180, GAZİEMİR, İzmir",
        "CityName": "İzmir",
        "DistrictName": "GAZİEMİR",
        "PhoneNumber": "02322512835",
        "Latitude": 38.330051,
        "Longitude": 27.135361,
        "CityId": "35",
        "DistrictId": "03581",
        "Zone": "Ege Bölgesi",
        "Services": "00010000000000010001101111000010101",
        "Url": "gaziemir-petrol-ofisi-235"
      },
      {
        "Id": 769,
        "StationName": "GÜRÇEŞME PETROL OFİSİ",
        "Address": "HÜRRİYET MAH. 433 SK. NO: 3, BUCA, İzmir",
        "CityName": "İzmir",
        "DistrictName": "BUCA",
        "Latitude": 38.401658,
        "Longitude": 27.148985,
        "CityId": "35",
        "DistrictId": "03520",
        "Zone": "Acente İstasyonları",
        "Services": "00010000100000100001101110000010101",
        "Url": "gurcesme-petrol-ofisi-769"
      },
      {
        "Id": 2274,
        "StationName": "GÜZELBAHÇE",
        "Address": "SEFERİHİSAR CADDESİ NO:68, GÜZELBAHÇE, İzmir",
        "CityName": "İzmir",
        "DistrictName": "GÜZELBAHÇE",
        "Latitude": 38.3667132,
        "Longitude": 26.8735718,
        "CityId": "35",
        "DistrictId": "03524",
        "Zone": "Ege Bölgesi",
        "Services": "00010000100000000001001001000000101",
        "Url": "guzelbahce-2274"
      },
      {
        "Id": 244,
        "StationName": "GÜZELBAHÇE 1 PETROL OFISI",
        "Address": "KAHRAMANDERE MAH. SEFERİHİSAR CAD. 77, GÜZELBAHÇE, İzmir",
        "CityName": "İzmir",
        "DistrictName": "GÜZELBAHÇE",
        "PhoneNumber": "02322368304",
        "Latitude": 38.360366,
        "Longitude": 26.872854,
        "CityId": "35",
        "DistrictId": "03524",
        "Zone": "Ege Bölgesi",
        "Services": "10010000100001010011101011000010101",
        "Url": "guzelbahce-1-petrol-ofisi-244"
      },
      {
        "Id": 1056,
        "StationName": "GÜZELBAHÇE 2 PETROL OFISI",
        "Address": "SEFERİHİSAR YOLU NO:118, GÜZELBAHÇE, İzmir",
        "CityName": "İzmir",
        "DistrictName": "GÜZELBAHÇE",
        "PhoneNumber": "02322367864",
        "Latitude": 38.357681,
        "Longitude": 26.870661,
        "CityId": "35",
        "DistrictId": "03524",
        "Zone": "Ege Bölgesi",
        "Services": "00010000100000010001101011000010101",
        "Url": "guzelbahce-2-petrol-ofisi-1056"
      },
      {
        "Id": 980,
        "StationName": "HATAY PETROL OFISI",
        "Address": "PİRİ REİS MAH.İNÖNÜ CAD.NO:254, KONAK, İzmir",
        "CityName": "İzmir",
        "DistrictName": "KONAK",
        "PhoneNumber": "02322283333",
        "Latitude": 38.402634,
        "Longitude": 27.113337,
        "CityId": "35",
        "DistrictId": "03522",
        "Zone": "Ege Bölgesi",
        "Services": "00010000000000000001101101000010101",
        "Url": "hatay-petrol-ofisi-980"
      },
      {
        "Id": 2292,
        "StationName": "ILICA",
        "Address": "ILICA MAHALLESİ 5065 SOKAK NO:68, ÇEŞME, İzmir",
        "CityName": "İzmir",
        "DistrictName": "ÇEŞME",
        "PhoneNumber": "02327231077",
        "Latitude": 38.303396,
        "Longitude": 26.3654863,
        "CityId": "35",
        "DistrictId": "03505",
        "Zone": "Ege Bölgesi",
        "Services": "00010000000000000000101001000010101",
        "Url": "ilica-2292"
      },
      {
        "Id": 2257,
        "StationName": "İNCİRALTI PETROL OFİSİ",
        "Address": "İNCİRALTI MAHALLESİ MİTHATPAŞA CADDESİ NO:54, BALÇOVA, İzmir",
        "CityName": "İzmir",
        "DistrictName": "BALÇOVA",
        "PhoneNumber": "02126050637",
        "Latitude": 38.394308,
        "Longitude": 27.0372934,
        "CityId": "35",
        "DistrictId": "03523",
        "Zone": "Acente İstasyonları",
        "Services": "00010000000000010000101001000010101",
        "Url": "inciralti-petrol-ofisi-2257"
      },
      {
        "Id": 2278,
        "StationName": "İZMIR ÇAMBEL",
        "Address": "ANKARA ASFALTI 29.KM ARMUTLU KÖYÜ, KEMALPAŞA, İzmir",
        "CityName": "İzmir",
        "DistrictName": "KEMALPAŞA",
        "Latitude": 38.4507533,
        "Longitude": 27.5571,
        "CityId": "35",
        "DistrictId": "03509",
        "Zone": "Ege Bölgesi",
        "Services": "00010000000000000000001000000000011",
        "Url": "izmir-cambel-2278"
      },
      {
        "Id": 248,
        "StationName": "İZMIR OTOGAR PETROL OFISI",
        "Address": "174 SOK. NO:130 ALTINDAG, BORNOVA, İzmir",
        "CityName": "İzmir",
        "DistrictName": "BORNOVA",
        "PhoneNumber": "02324722050",
        "Latitude": 38.430599,
        "Longitude": 27.211942,
        "CityId": "35",
        "DistrictId": "03585",
        "Zone": "Ege Bölgesi",
        "Services": "00010000100000000101101000000010101",
        "Url": "izmir-otogar-petrol-ofisi-248"
      },
      {
        "Id": 1738,
        "StationName": "KAMİL TUNCA PETROL OFİSİ",
        "Address": "YEŞILOVA MAHALLESI KAMIL TUNCA CADDESI NO:215 A, BORNOVA, İzmir",
        "CityName": "İzmir",
        "DistrictName": "BORNOVA",
        "Latitude": 38.431079,
        "Longitude": 27.198648,
        "CityId": "35",
        "DistrictId": "03585",
        "Zone": "Ege Bölgesi",
        "Services": "00010000000000010001101011000010101",
        "Url": "kamil-tunca-petrol-ofisi-1738"
      },
      {
        "Id": 2553,
        "StationName": "KAPILAR",
        "Address": "GAZİLER CADDESİ NO:159 KAPILAR, MERKEZ, İzmir",
        "CityName": "İzmir",
        "DistrictName": "MERKEZ",
        "Latitude": 38.4222769,
        "Longitude": 27.1514274,
        "CityId": "35",
        "DistrictId": "03500",
        "Zone": "Ege Bölgesi",
        "Services": "00010000000000000000001000000000101",
        "Url": "kapilar-2553"
      },
      {
        "Id": 1734,
        "StationName": "KARABAĞLAR - PETROL OFİSİ",
        "Address": "EMREZ MAHALLESİ AKÇAY CAD. NO: 34/1, GAZİEMİR, İzmir",
        "CityName": "İzmir",
        "DistrictName": "GAZİEMİR",
        "Latitude": 38.357653,
        "Longitude": 27.13508,
        "CityId": "35",
        "DistrictId": "03581",
        "Zone": "Acente İstasyonları",
        "Services": "01010000000000010000101111000010101",
        "Url": "karabaglar-petrol-ofisi-1734"
      },
      {
        "Id": 2270,
        "StationName": "KARABAĞLAR-1",
        "Address": "EMREZ MAHALLESİ AKÇAY CADDESİ NO:56, GAZİEMİR, İzmir",
        "CityName": "İzmir",
        "DistrictName": "GAZİEMİR",
        "Latitude": 38.3549695,
        "Longitude": 27.1336174,
        "CityId": "35",
        "DistrictId": "03581",
        "Zone": "Ege Bölgesi",
        "Services": "00010000000000000001001001000000011",
        "Url": "karabaglar-1-2270"
      },
      {
        "Id": 1794,
        "StationName": "KEMALPAŞA MERKEZ PETROL OFİSİ",
        "Address": "KEMALPAŞA MAH. ASFALTI NO:2, KEMALPAŞA, İzmir",
        "CityName": "İzmir",
        "DistrictName": "KEMALPAŞA",
        "Latitude": 38.437252,
        "Longitude": 27.399244,
        "CityId": "35",
        "DistrictId": "03509",
        "Zone": "Ege Bölgesi",
        "Services": "00010000100000010001101001000010101",
        "Url": "kemalpasa-merkez-petrol-ofisi-1794"
      },
      {
        "Id": 236,
        "StationName": "KEMALPAŞA OSB PETROL OFISI",
        "Address": "KEMALPAŞA OSB MAH. İZMİR ANKARA YOLU (ANSIZCA) KÜME EVLERİ D, KEMALPAŞA, İzmir",
        "CityName": "İzmir",
        "DistrictName": "KEMALPAŞA",
        "PhoneNumber": "02328781783",
        "Latitude": 38.458048,
        "Longitude": 27.410764,
        "CityId": "35",
        "DistrictId": "03509",
        "Zone": "Ege Bölgesi",
        "Services": "10010000010001110001101011000010101",
        "Url": "kemalpasa-osb-petrol-ofisi-236"
      },
      {
        "Id": 1205,
        "StationName": "KEMALPAŞA PETROL OFISI",
        "Address": "YENİ MAH.İZMİR-ANKARA CAD. NO:9-9/1-9/A, KEMALPAŞA, İzmir",
        "CityName": "İzmir",
        "DistrictName": "KEMALPAŞA",
        "PhoneNumber": "02328806001",
        "Latitude": 38.475528,
        "Longitude": 27.603248,
        "CityId": "35",
        "DistrictId": "03509",
        "Zone": "Ege Bölgesi",
        "Services": "00010010100000010001101011001010101",
        "Url": "kemalpasa-petrol-ofisi-1205"
      },
      {
        "Id": 2279,
        "StationName": "KEMALPAŞA YOLU",
        "Address": "KIZILÜZÜM MAHALLESİ KEMALPAŞA KIZILÜZÜM CADDESİ NO:8, KEMALPASA, İzmir",
        "CityName": "İzmir",
        "DistrictName": "KEMALPASA",
        "Latitude": 38.4447066,
        "Longitude": 27.3791952,
        "CityId": "35",
        "DistrictId": "03509",
        "Zone": "Ege Bölgesi",
        "Services": "00010000000000000001001100000000101",
        "Url": "kemalpasa-yolu-2279"
      },
      {
        "Id": 740,
        "StationName": "KEMALPAŞA/ÖRNEKKÖY PETROL OFISI",
        "Address": "ÖRNEKKÖY MAH. KEMALPAŞA CAD. 90 A 1, KEMALPAŞA, İzmir",
        "CityName": "İzmir",
        "DistrictName": "KEMALPAŞA",
        "PhoneNumber": "02328777627",
        "Latitude": 38.415901,
        "Longitude": 27.476036,
        "CityId": "35",
        "DistrictId": "03509",
        "Zone": "Ege Bölgesi",
        "Services": "00010000110000000001101011000010101",
        "Url": "kemalpasa-ornekkoy-petrol-ofisi-740"
      },
      {
        "Id": 902,
        "StationName": "KENT HASTANESI PETROL OFISI",
        "Address": "8229/1 SOKAK NO.42, ÇİĞLİ, İzmir",
        "CityName": "İzmir",
        "DistrictName": "ÇİĞLİ",
        "PhoneNumber": "02323861610",
        "Latitude": 38.491313,
        "Longitude": 27.051604,
        "CityId": "35",
        "DistrictId": "03580",
        "Zone": "Ege Bölgesi",
        "Services": "00010000100000001101101000000010101",
        "Url": "kent-hastanesi-petrol-ofisi-902"
      },
      {
        "Id": 1672,
        "StationName": "KINIK 2 PETROL OFISI",
        "Address": "HAMZAHOCALI MAH. KÖYALTI KÜMEEVLERI NO:8 IZMIR  İZMİR, KINIK, İzmir",
        "CityName": "İzmir",
        "DistrictName": "KINIK",
        "Latitude": 39.123153,
        "Longitude": 27.451112,
        "CityId": "35",
        "DistrictId": "03510",
        "Zone": "Ege Bölgesi",
        "Services": "10010100100000100001101000000010100",
        "Url": "kinik-2-petrol-ofisi-1672"
      },
      {
        "Id": 1800,
        "StationName": "KINIK ÇEVREYOLU PETROL OFİSİ",
        "Address": "OSMANİYE MAH.KEREMENLİ MEVKİİ NO:21, KINIK, İzmir",
        "CityName": "İzmir",
        "DistrictName": "KINIK",
        "Latitude": 39.101112,
        "Longitude": 27.371444,
        "CityId": "35",
        "DistrictId": "03510",
        "Zone": "Ege Bölgesi",
        "Services": "00010000100000010001001001000000101",
        "Url": "kinik-cevreyolu-petrol-ofisi-1800"
      },
      {
        "Id": 233,
        "StationName": "KINIK PETROL OFISI",
        "Address": "OSMANİYE MAH. ATATÜRK CAD. NO:48, KINIK, İzmir",
        "CityName": "İzmir",
        "DistrictName": "KINIK",
        "PhoneNumber": "02326871063",
        "Latitude": 39.087983,
        "Longitude": 27.373947,
        "CityId": "35",
        "DistrictId": "03510",
        "Zone": "Ege Bölgesi",
        "Services": "10010000100000100001001000000000101",
        "Url": "kinik-petrol-ofisi-233"
      },
      {
        "Id": 2280,
        "StationName": "KIRAZ",
        "Address": "CUMHURİYET MAHALLESİ ALAŞEHİR YOLU ÜZERİ, KİRAZ, İzmir",
        "CityName": "İzmir",
        "DistrictName": "KİRAZ",
        "PhoneNumber": "02325723727",
        "Latitude": 38.2315106,
        "Longitude": 28.2159194,
        "CityId": "35",
        "DistrictId": "03511",
        "Zone": "Ege Bölgesi",
        "Services": "00010000000000000000001000000000101",
        "Url": "kiraz-2280"
      },
      {
        "Id": 1789,
        "StationName": "KONAK PETROL OFİSİ",
        "Address": "GÜNEŞLİ MAH.YEŞİLLİK CADDESİ NO:40, KONAK, İzmir",
        "CityName": "İzmir",
        "DistrictName": "KONAK",
        "Latitude": 38.397934,
        "Longitude": 27.131269,
        "CityId": "35",
        "DistrictId": "03522",
        "Zone": "Ege Bölgesi",
        "Services": "10010100110000010001000011000001101",
        "Url": "konak-petrol-ofisi-1789"
      },
      {
        "Id": 2289,
        "StationName": "KUŞÇUBURUN",
        "Address": "KUŞÇUBURUN MAHALLESİ, TORBALI, İzmir",
        "CityName": "İzmir",
        "DistrictName": "TORBALI",
        "Latitude": 38.2129663,
        "Longitude": 27.3318791,
        "CityId": "35",
        "DistrictId": "03518",
        "Zone": "Ege Bölgesi",
        "Services": "00010000000000000000001000000000011",
        "Url": "kuscuburun-2289"
      },
      {
        "Id": 2260,
        "StationName": "MANAS BULVARI",
        "Address": "ADALET MAH. MANAS BULVARI NO:76, BAYRAKLI, İzmir",
        "CityName": "İzmir",
        "DistrictName": "BAYRAKLI",
        "Latitude": 38.4585706,
        "Longitude": 27.1751341,
        "CityId": "35",
        "DistrictId": "03586",
        "Zone": "Ege Bölgesi",
        "Services": "00010000000000000000001000000000101",
        "Url": "manas-bulvari-2260"
      },
      {
        "Id": 1086,
        "StationName": "MENDERES 2 PETROL OFISI",
        "Address": "CLAROS BULVARI NO:374 ATAKÖY KÖYÜ, MENDERES, İzmir",
        "CityName": "İzmir",
        "DistrictName": "MENDERES",
        "PhoneNumber": "02327927733",
        "Latitude": 38.088094,
        "Longitude": 27.183633,
        "CityId": "35",
        "DistrictId": "03512",
        "Zone": "Ege Bölgesi",
        "Services": "00010000000000100001001000000000101",
        "Url": "menderes-2-petrol-ofisi-1086"
      },
      {
        "Id": 2282,
        "StationName": "MENDERES İZMIR",
        "Address": "ÇİLEME MAHALLESİ CLAROS BULVARI NO:120, MENDERES, İzmir",
        "CityName": "İzmir",
        "DistrictName": "MENDERES",
        "Latitude": 38.1637762,
        "Longitude": 27.1571057,
        "CityId": "35",
        "DistrictId": "03512",
        "Zone": "Ege Bölgesi",
        "Services": "00010000000000000000001000000000011",
        "Url": "menderes-izmir-2282"
      },
      {
        "Id": 238,
        "StationName": "MENDERES PETROL OFISI",
        "Address": "ESKI BULGURCA YOLU SARIÇAY MEVKII NO:20, MENDERES, İzmir",
        "CityName": "İzmir",
        "DistrictName": "MENDERES",
        "PhoneNumber": "02327821124",
        "Latitude": 38.222208,
        "Longitude": 27.137315,
        "CityId": "35",
        "DistrictId": "03512",
        "Zone": "Ege Bölgesi",
        "Services": "00010000000000010010101011000010101",
        "Url": "menderes-petrol-ofisi-238"
      },
      {
        "Id": 913,
        "StationName": "MENEMEN 1 PETROL OFISI",
        "Address": "MERMERLİ MAHALLESİ İNKİLAP CADDESİ NO:68, MENEMEN, İzmir",
        "CityName": "İzmir",
        "DistrictName": "MENEMEN",
        "PhoneNumber": "02328438281",
        "Latitude": 38.612613,
        "Longitude": 27.072662,
        "CityId": "35",
        "DistrictId": "03513",
        "Zone": "Ege Bölgesi",
        "Services": "10010101100010010011001011000000101",
        "Url": "menemen-1-petrol-ofisi-913"
      },
      {
        "Id": 1019,
        "StationName": "MENEMEN 2 PETROL OFISI",
        "Address": "YAHŞELİ MAHALLESİ NO:2 MERKEZ KÜMEEVLER, MENEMEN, İzmir",
        "CityName": "İzmir",
        "DistrictName": "MENEMEN",
        "PhoneNumber": "02328325480",
        "Latitude": 38.611022,
        "Longitude": 27.103328,
        "CityId": "35",
        "DistrictId": "03513",
        "Zone": "Ege Bölgesi",
        "Services": "10010000100001110001101011000010101",
        "Url": "menemen-2-petrol-ofisi-1019"
      },
      {
        "Id": 2283,
        "StationName": "MENEMEN M",
        "Address": "YILDIRIM MAHALLESİ ALİAĞA-İZMİR ASFALTI NO:36 TÜRKELLİ, MENEMEN, İzmir",
        "CityName": "İzmir",
        "DistrictName": "MENEMEN",
        "Latitude": 38.6764178,
        "Longitude": 27.0164082,
        "CityId": "35",
        "DistrictId": "03513",
        "Zone": "Ege Bölgesi",
        "Services": "00010000100000000001001000000000101",
        "Url": "menemen-m-2283"
      },
      {
        "Id": 626,
        "StationName": "MERSINLI PETROL OFISI",
        "Address": "ÇINAR MAH. FATİH CADDESİ NO:1/22, BORNOVA, İzmir",
        "CityName": "İzmir",
        "DistrictName": "BORNOVA",
        "PhoneNumber": "02324616677",
        "Latitude": 38.441447,
        "Longitude": 27.18039,
        "CityId": "35",
        "DistrictId": "03585",
        "Zone": "Ege Bölgesi",
        "Services": "00010000000000110001101011000010101",
        "Url": "mersinli-petrol-ofisi-626"
      },
      {
        "Id": 611,
        "StationName": "MORDOĞAN PETROL OFISI",
        "Address": "MORDOĞAN MAH. ÇATALKAYA KÜME EVLER NO:20 MORDOĞAN, KARABURUN, İzmir",
        "CityName": "İzmir",
        "DistrictName": "KARABURUN",
        "Latitude": 38.510449,
        "Longitude": 26.616244,
        "CityId": "35",
        "DistrictId": "03508",
        "Zone": "Ege Bölgesi",
        "Services": "00110000100000110001101011000010101",
        "Url": "mordogan-petrol-ofisi-611"
      },
      {
        "Id": 869,
        "StationName": "NALDÖKEN PETROL OFISI",
        "Address": "NALDÖKEN MAH ANKARA CAD. 214, BORNOVA, İzmir",
        "CityName": "İzmir",
        "DistrictName": "BORNOVA",
        "Latitude": 38.454641,
        "Longitude": 27.259183,
        "CityId": "35",
        "DistrictId": "03585",
        "Zone": "Ege Bölgesi",
        "Services": "00010000100000000000101001000010101",
        "Url": "naldoken-petrol-ofisi-869"
      },
      {
        "Id": 742,
        "StationName": "NARLIDERE PETROL OFISI",
        "Address": "YENİ ÇEŞME YOLU NO:54/A, BALÇOVA, İzmir",
        "CityName": "İzmir",
        "DistrictName": "BALÇOVA",
        "PhoneNumber": "02323428294",
        "Latitude": 38.396605,
        "Longitude": 27.024545,
        "CityId": "35",
        "DistrictId": "03523",
        "Zone": "Ege Bölgesi",
        "Services": "00010000000000100000101001000010101",
        "Url": "narlidere-petrol-ofisi-742"
      },
      {
        "Id": 2296,
        "StationName": "ÖDEMIŞ",
        "Address": "CUMHURİYET MAHALLESİ ATATÜRK CADDESİ NO:98, ÖDEMİŞ, İzmir",
        "CityName": "İzmir",
        "DistrictName": "ÖDEMİŞ",
        "Latitude": 38.2277874,
        "Longitude": 27.9814966,
        "CityId": "35",
        "DistrictId": "03514",
        "Zone": "Ege Bölgesi",
        "Services": "00010000000000000000001001000000101",
        "Url": "odemis-2296"
      },
      {
        "Id": 519,
        "StationName": "ÖDEMIŞ GERELI PETROL OFISI",
        "Address": "GERELİ KÖYÜ, ÖDEMİŞ, İzmir",
        "CityName": "İzmir",
        "DistrictName": "ÖDEMİŞ",
        "PhoneNumber": "02325635047",
        "Latitude": 38.201508,
        "Longitude": 28.040991,
        "CityId": "35",
        "DistrictId": "03514",
        "Zone": "Ege Bölgesi",
        "Services": "00010000000000100000101000000010101",
        "Url": "odemis-gereli-petrol-ofisi-519"
      },
      {
        "Id": 1338,
        "StationName": "ÖDEMIŞ PETROL OFISI",
        "Address": "TÜRKMEN MAH. ÖMÜR SOK. NO:1, ÖDEMİŞ, İzmir",
        "CityName": "İzmir",
        "DistrictName": "ÖDEMİŞ",
        "PhoneNumber": "02325083518",
        "Latitude": 38.223768,
        "Longitude": 27.956026,
        "CityId": "35",
        "DistrictId": "03514",
        "Zone": "Ege Bölgesi",
        "Services": "00010000000000100001101000000010101",
        "Url": "odemis-petrol-ofisi-1338"
      },
      {
        "Id": 833,
        "StationName": "ÖREN PETROL OFISI",
        "Address": "ÖREN BELDESİ BELEDİYE GARAJI İÇİ, KEMALPAŞA, İzmir",
        "CityName": "İzmir",
        "DistrictName": "KEMALPAŞA",
        "PhoneNumber": "02328841640",
        "Latitude": 38.41032,
        "Longitude": 27.584801,
        "CityId": "35",
        "DistrictId": "03509",
        "Zone": "Ege Bölgesi",
        "Services": "00000000000000000000000000000000100",
        "Url": "oren-petrol-ofisi-833"
      },
      {
        "Id": 2281,
        "StationName": "ÖZDERE",
        "Address": "ÖZDERE-CUMHURİYET MAHALLESİ ÖZDERE-İZMİR CADDESİ NO:35, MENDERES, İzmir",
        "CityName": "İzmir",
        "DistrictName": "MENDERES",
        "Latitude": 38.0034372,
        "Longitude": 27.1223531,
        "CityId": "35",
        "DistrictId": "03512",
        "Zone": "Ege Bölgesi",
        "Services": "00010000000000000000101000000010011",
        "Url": "ozdere-2281"
      },
      {
        "Id": 1219,
        "StationName": "ÖZDERE PETROL OFISI",
        "Address": "ÖZDERE ORTA MAH. ATATÜRK BULVARI 410, MENDERES, İzmir",
        "CityName": "İzmir",
        "DistrictName": "MENDERES",
        "Latitude": 38.047389,
        "Longitude": 27.055292,
        "CityId": "35",
        "DistrictId": "03512",
        "Zone": "Ege Bölgesi",
        "Services": "00010000000000000001101000000010101",
        "Url": "ozdere-petrol-ofisi-1219"
      },
      {
        "Id": 2258,
        "StationName": "ÖZKANLAR",
        "Address": "SAKARYA CAD. NO:67, BAYRAKLI, İzmir",
        "CityName": "İzmir",
        "DistrictName": "BAYRAKLI",
        "Latitude": 38.4567876,
        "Longitude": 27.1854778,
        "CityId": "35",
        "DistrictId": "03586",
        "Zone": "Ege Bölgesi",
        "Services": "00010000000000000001001100000000011",
        "Url": "ozkanlar-2258"
      },
      {
        "Id": 2288,
        "StationName": "PANCAR",
        "Address": "İNÖNÜ MAHALLESİ 139 SOKAĞI NO:42/1, TORBALI, İzmir",
        "CityName": "İzmir",
        "DistrictName": "TORBALI",
        "Latitude": 38.2299318,
        "Longitude": 27.2687018,
        "CityId": "35",
        "DistrictId": "03518",
        "Zone": "Ege Bölgesi",
        "Services": "00010000000000000000001000000000011",
        "Url": "pancar-2288"
      },
      {
        "Id": 2264,
        "StationName": "PINARBAŞI - İZMIR",
        "Address": "ÜMİT MAHALLESİ KEMALPAŞA CADDESİ NO:353, BORNOVA, İzmir",
        "CityName": "İzmir",
        "DistrictName": "BORNOVA",
        "Latitude": 38.4392581,
        "Longitude": 27.2553772,
        "CityId": "35",
        "DistrictId": "03585",
        "Zone": "Ege Bölgesi",
        "Services": "00010000100000000001000000000000011",
        "Url": "pinarbasi-izmir-2264"
      },
      {
        "Id": 985,
        "StationName": "PINARBAŞI PETROL OFİSİ",
        "Address": "ÜMİT MAH. KEMALPAŞA CAD. NO:351, BORNOVA, İzmir",
        "CityName": "İzmir",
        "DistrictName": "BORNOVA",
        "PhoneNumber": "02323392572",
        "Latitude": 38.439351,
        "Longitude": 27.254658,
        "CityId": "35",
        "DistrictId": "03585",
        "Zone": "Ege Bölgesi",
        "Services": "00010000100000010000001011000000101",
        "Url": "pinarbasi-petrol-ofisi-985"
      },
      {
        "Id": 2295,
        "StationName": "RAHMANLAR",
        "Address": "KARADOĞAN KÖYÜ RAHMANLAR MEVKİ, ÖDEMİŞ, İzmir",
        "CityName": "İzmir",
        "DistrictName": "ÖDEMİŞ",
        "Latitude": 38.2172959,
        "Longitude": 27.9188781,
        "CityId": "35",
        "DistrictId": "03514",
        "Zone": "Ege Bölgesi",
        "Services": "00010000000000000000001000000000011",
        "Url": "rahmanlar-2295"
      },
      {
        "Id": 1545,
        "StationName": "REISDERE PETROL OFISI",
        "Address": "YALI MAHALLESİ 6000 SK. NO:112 İÇ KAPI NO:X, ÇEŞME, İzmir",
        "CityName": "İzmir",
        "DistrictName": "ÇEŞME",
        "PhoneNumber": "02327151346",
        "Latitude": 38.329701,
        "Longitude": 26.42301,
        "CityId": "35",
        "DistrictId": "03505",
        "Zone": "Ege Bölgesi",
        "Services": "10110000100000010001101011000010101",
        "Url": "reisdere-petrol-ofisi-1545"
      },
      {
        "Id": 2271,
        "StationName": "SARNIÇ",
        "Address": "FATİH MAHALLESİ EGE CADDESİ NO:2 SARNIÇ, GAZİEMİR, İzmir",
        "CityName": "İzmir",
        "DistrictName": "GAZİEMİR",
        "Latitude": 38.3079905,
        "Longitude": 27.1570208,
        "CityId": "35",
        "DistrictId": "03581",
        "Zone": "Ege Bölgesi",
        "Services": "00010000000000000000101001000010101",
        "Url": "sarnic-2271"
      },
      {
        "Id": 242,
        "StationName": "SEFERIHISAR KUŞADASI YOLU PETROL OFISI",
        "Address": "SEFERIHISAR 2.KM TEPECIK MAH. KUŞADASI YOLU UZERI, SEFERİHİSAR, İzmir",
        "CityName": "İzmir",
        "DistrictName": "SEFERİHİSAR",
        "PhoneNumber": "02327433434",
        "Latitude": 38.177655,
        "Longitude": 26.831107,
        "CityId": "35",
        "DistrictId": "03515",
        "Zone": "Ege Bölgesi",
        "Services": "10110101110001011001101111000011101",
        "Url": "seferihisar-kusadasi-yolu-petrol-ofisi-242"
      },
      {
        "Id": 1344,
        "StationName": "SEFERIHISAR MERKEZ PETROL OFISI",
        "Address": "ÇOLAK İBRAHİM BEY MAH. İZMİR CAD. 132, SEFERİHİSAR, İzmir",
        "CityName": "İzmir",
        "DistrictName": "SEFERİHİSAR",
        "PhoneNumber": "02327433067",
        "Latitude": 38.208696,
        "Longitude": 26.830841,
        "CityId": "35",
        "DistrictId": "03515",
        "Zone": "Ege Bölgesi",
        "Services": "00010000100000000001101011001010101",
        "Url": "seferihisar-merkez-petrol-ofisi-1344"
      },
      {
        "Id": 522,
        "StationName": "SELÇUK PETROL OFISI",
        "Address": "İSABEY MAH.ATATÜRK CAD.NO: 41, SELÇUK, İzmir",
        "CityName": "İzmir",
        "DistrictName": "SELÇUK",
        "Latitude": 37.954993,
        "Longitude": 27.371941,
        "CityId": "35",
        "DistrictId": "03516",
        "Zone": "Ege Bölgesi",
        "Services": "00010000000000000101101000000010101",
        "Url": "selcuk-petrol-ofisi-522"
      },
      {
        "Id": 1121,
        "StationName": "SÜTÇÜLER PETROL OFISI",
        "Address": "ANKARA ASFALTI 30.KM NO:51 SÜTÇÜLER MEVKİİ, KEMALPAŞA, İzmir",
        "CityName": "İzmir",
        "DistrictName": "KEMALPAŞA",
        "PhoneNumber": "02323753316",
        "Latitude": 38.45449,
        "Longitude": 27.446551,
        "CityId": "35",
        "DistrictId": "03509",
        "Zone": "Ege Bölgesi",
        "Services": "00010000100000100000101001000010101",
        "Url": "sutculer-petrol-ofisi-1121"
      },
      {
        "Id": 831,
        "StationName": "TIRE PETROL OFISI",
        "Address": "ATATÜRK MAH. İSTASYON CAD. NO:98, TİRE, İzmir",
        "CityName": "İzmir",
        "DistrictName": "TİRE",
        "PhoneNumber": "02325123343",
        "Latitude": 38.105227,
        "Longitude": 27.714183,
        "CityId": "35",
        "DistrictId": "03517",
        "Zone": "Ege Bölgesi",
        "Services": "00010000000000100001101000000010101",
        "Url": "tire-petrol-ofisi-831"
      },
      {
        "Id": 1439,
        "StationName": "TORBALI - ÇAYBAŞI PETROL OFISI",
        "Address": "MUSTAFA KEMAL ATATÜRK MAH. AYDIN CAD. NO:96, TORBALI, İzmir",
        "CityName": "İzmir",
        "DistrictName": "TORBALI",
        "Latitude": 38.13173,
        "Longitude": 27.380049,
        "CityId": "35",
        "DistrictId": "03518",
        "Zone": "Ege Bölgesi",
        "Services": "00010000100000000001101001000010101",
        "Url": "torbali-caybasi-petrol-ofisi-1439"
      },
      {
        "Id": 966,
        "StationName": "TORBALI 1 PETROL OFISI",
        "Address": "ALPKENT MAHALLESİ AYDIN CADDESİ NO:128, TORBALI, İzmir",
        "CityName": "İzmir",
        "DistrictName": "TORBALI",
        "PhoneNumber": "02328561604",
        "Latitude": 38.169873,
        "Longitude": 27.35856,
        "CityId": "35",
        "DistrictId": "03518",
        "Zone": "Ege Bölgesi",
        "Services": "00010000100000010001101011000010101",
        "Url": "torbali-1-petrol-ofisi-966"
      },
      {
        "Id": 2287,
        "StationName": "TORBALI MERKEZ",
        "Address": "İZMİR-AYDIN ASFALTI NO:52, TORBALI, İzmir",
        "CityName": "İzmir",
        "DistrictName": "TORBALI",
        "Latitude": 38.1784147,
        "Longitude": 27.355038,
        "CityId": "35",
        "DistrictId": "03518",
        "Zone": "Ege Bölgesi",
        "Services": "00010000000000000000001000000000011",
        "Url": "torbali-merkez-2287"
      },
      {
        "Id": 2284,
        "StationName": "ULUKENT MERKEZ",
        "Address": "29 EKİM MAHALLESİ 9. CADDESİ NO:94/1, MENEMEN, İzmir",
        "CityName": "İzmir",
        "DistrictName": "MENEMEN",
        "Latitude": 38.5485975,
        "Longitude": 27.0370156,
        "CityId": "35",
        "DistrictId": "03513",
        "Zone": "Ege Bölgesi",
        "Services": "00010000100000000000001001000000101",
        "Url": "ulukent-merkez-2284"
      },
      {
        "Id": 460,
        "StationName": "ULUKENT PETROL OFISI",
        "Address": "CUMHURİYET MAHALLESİ ÇANAKKALE ASFALTI CADDESİ NO:35, MENEMEN, İzmir",
        "CityName": "İzmir",
        "DistrictName": "MENEMEN",
        "Latitude": 38.564266,
        "Longitude": 27.049011,
        "CityId": "35",
        "DistrictId": "03513",
        "Zone": "Ege Bölgesi",
        "Services": "00010000100000010000101001000010101",
        "Url": "ulukent-petrol-ofisi-460"
      },
      {
        "Id": 1720,
        "StationName": "URLA 1 PETROL OFISI",
        "Address": "ÇEŞME-İZMİR ASFALTI NO:140 İSKELE MAHALLESİ, URLA, İzmir",
        "CityName": "İzmir",
        "DistrictName": "URLA",
        "Latitude": 38.337067,
        "Longitude": 26.771515,
        "CityId": "35",
        "DistrictId": "03519",
        "Zone": "Ege Bölgesi",
        "Services": "00011000110000010101001001000000101",
        "Url": "urla-1-petrol-ofisi-1720"
      },
      {
        "Id": 2290,
        "StationName": "URLA İZMIR",
        "Address": "ÇEŞME IZMİR ASVALTI NO:141, URLA, İzmir",
        "CityName": "İzmir",
        "DistrictName": "URLA",
        "Latitude": 38.3346068,
        "Longitude": 26.7677865,
        "CityId": "35",
        "DistrictId": "03519",
        "Zone": "Ege Bölgesi",
        "Services": "00010000000000000000000000000000011",
        "Url": "urla-izmir-2290"
      },
      {
        "Id": 1770,
        "StationName": "URLA SANAYİ PETROL OFİSİ",
        "Address": "ALTINTAS MAH. AHMET BESIM UYAL CAD. NO: 13 A, URLA, İzmir",
        "CityName": "İzmir",
        "DistrictName": "URLA",
        "Latitude": 38.322041,
        "Longitude": 26.752665,
        "CityId": "35",
        "DistrictId": "03519",
        "Zone": "Ege Bölgesi",
        "Services": "00010000100000010000101001000010101",
        "Url": "urla-sanayi-petrol-ofisi-1770"
      },
      {
        "Id": 2291,
        "StationName": "URLA YOLU",
        "Address": "ATATÜRK MAHALLESİ ÇEŞME-URLA-İZMİR ASFALTI CADDESİ NO:142, URLA, İzmir",
        "CityName": "İzmir",
        "DistrictName": "URLA",
        "Latitude": 38.3454008,
        "Longitude": 26.7884324,
        "CityId": "35",
        "DistrictId": "03519",
        "Zone": "Ege Bölgesi",
        "Services": "00010000100000000001001000000000011",
        "Url": "urla-yolu-2291"
      },
      {
        "Id": 2617,
        "StationName": "XXX",
        "Address": "B. HAYRETTİNPAŞA MH. CEMALETTİN AKSU CAD. NO:84, ALİAĞA, İzmir",
        "CityName": "İzmir",
        "DistrictName": "ALİAĞA",
        "Latitude": 38.711648,
        "Longitude": 26.987469,
        "CityId": "35",
        "DistrictId": "03501",
        "Zone": "Ege Bölgesi",
        "Services": "00000000000000000000000000000000100",
        "Url": "xxx-2617"
      },
      {
        "Id": 2259,
        "StationName": "YAMANLAR",
        "Address": "YAMANLAR MAHALLESİ KUBİLAY CADDESİ NO:162, BAYRAKLI, İzmir",
        "CityName": "İzmir",
        "DistrictName": "BAYRAKLI",
        "Latitude": 38.4744737,
        "Longitude": 27.1305088,
        "CityId": "35",
        "DistrictId": "03586",
        "Zone": "Ege Bölgesi",
        "Services": "00010000100000000001001000000000101",
        "Url": "yamanlar-2259"
      },
      {
        "Id": 520,
        "StationName": "YAZIBAŞI PETROL OFISI",
        "Address": "İZMİR-AYDIN KARAYOLU 35.KM NO:121 YAZIBAŞI, TORBALI, İzmir",
        "CityName": "İzmir",
        "DistrictName": "TORBALI",
        "PhoneNumber": "02328538111",
        "Latitude": 38.22186,
        "Longitude": 27.314419,
        "CityId": "35",
        "DistrictId": "03518",
        "Zone": "Ege Bölgesi",
        "Services": "00010000000000100001101011000011101",
        "Url": "yazibasi-petrol-ofisi-520"
      },
      {
        "Id": 234,
        "StationName": "YENI ŞAKRAN PETROL OFISI",
        "Address": "YENİ ŞAKRAN BELDESİ BAĞARASI MEVKİİ, ALİAĞA, İzmir",
        "CityName": "İzmir",
        "DistrictName": "ALİAĞA",
        "PhoneNumber": "02326310913",
        "Latitude": 38.887492,
        "Longitude": 27.066263,
        "CityId": "35",
        "DistrictId": "03501",
        "Zone": "Ege Bölgesi",
        "Services": "10010001000000110010101001000110101",
        "Url": "yeni-sakran-petrol-ofisi-234"
      },
      {
        "Id": 975,
        "StationName": "YENIKENT PETROLOFISI",
        "Address": "İSKELE MAH.SEMT ÇESME URLA İZMİR ASFALTI CAD. NO:204, URLA, İzmir",
        "CityName": "İzmir",
        "DistrictName": "URLA",
        "Latitude": 38.3363266,
        "Longitude": 26.7713413,
        "CityId": "35",
        "DistrictId": "03519",
        "Zone": "Ege Bölgesi",
        "Services": "10011000000000000001001110000000101",
        "Url": "yenikent-petrolofisi-975"
      },
      {
        "Id": 2654,
        "StationName": "YEŞİLLİK PETROL OFİSİ",
        "Address": "YEŞİLLİK CAD. NO:254, KONAK, İzmir",
        "CityName": "İzmir",
        "DistrictName": "KONAK",
        "Latitude": 38.386269,
        "Longitude": 27.134428,
        "CityId": "35",
        "DistrictId": "03587",
        "Zone": "Ege Bölgesi",
        "Services": "00000000000000000000000000000000100",
        "Url": "yesillik-petrol-ofisi-2654"
      }
    ],
    "Latitude": 38.456431889516125,
    "Longitude": 27.178985836290323
  },
  {
    "CityId": "42",
    "Values": [
      {
        "Id": 810,
        "StationName": "19 MAYIS CADDESI PETROL OFISI",
        "Address": "SANDIKLI MAHALLESİ 19 MAYIS CAD. NO:17, KARAPINAR, Konya",
        "CityName": "Konya",
        "DistrictName": "KARAPINAR",
        "PhoneNumber": "03327557601",
        "Latitude": 37.70893,
        "Longitude": 33.542675,
        "CityId": "42",
        "DistrictId": "04214",
        "Zone": "Çukurova",
        "Services": "10010101110000100001111000000010101",
        "Url": "19-mayis-caddesi-petrol-ofisi-810"
      },
      {
        "Id": 2622,
        "StationName": "ABDÜLHAMİT HAN PETROL OFİSİ",
        "Address": "PARSANA  MAH. SULTAN ABDÜLHAMİD HAN. CD. NO:239, SELÇUKLU, Konya",
        "CityName": "Konya",
        "DistrictName": "SELÇUKLU",
        "Latitude": 37.94321,
        "Longitude": 32.476428,
        "CityId": "42",
        "DistrictId": "04230",
        "Zone": "Çukurova",
        "Services": "00000000000000000000001001000000100",
        "Url": "abdulhamit-han-petrol-ofisi-2622"
      },
      {
        "Id": 2346,
        "StationName": "AKŞEHIR",
        "Address": "İSTASYON MAHALLESİ İSTASYON CADDESİ NO:36, AKŞEHİR, Konya",
        "CityName": "Konya",
        "DistrictName": "AKŞEHİR",
        "Latitude": 38.3596536,
        "Longitude": 31.423,
        "CityId": "42",
        "DistrictId": "04202",
        "Zone": "Çukurova",
        "Services": "00010000000000000000001000000000011",
        "Url": "aksehir-2346"
      },
      {
        "Id": 536,
        "StationName": "AKŞEHIR İSTANBUL YOLU PETROL OFISI",
        "Address": "İSTASYON MAHALLESİ YENİ İSTANBUL CAD. NO:3000, AKŞEHİR, Konya",
        "CityName": "Konya",
        "DistrictName": "AKŞEHİR",
        "PhoneNumber": "03328133322",
        "Latitude": 38.373012,
        "Longitude": 31.437262,
        "CityId": "42",
        "DistrictId": "04202",
        "Zone": "Çukurova",
        "Services": "00010000100000100001101000000010101",
        "Url": "aksehir-istanbul-yolu-petrol-ofisi-536"
      },
      {
        "Id": 543,
        "StationName": "ALTINEKIN PETROL OFISI",
        "Address": "ÖLMEZ MAHALLESİ VATAN CADDESİ NO:55, ALTINEKİN, Konya",
        "CityName": "Konya",
        "DistrictName": "ALTINEKİN",
        "PhoneNumber": "03326312123",
        "Latitude": 38.309885,
        "Longitude": 32.850012,
        "CityId": "42",
        "DistrictId": "04203",
        "Zone": "Çukurova",
        "Services": "00010000000000000001101000000010100",
        "Url": "altinekin-petrol-ofisi-543"
      },
      {
        "Id": 267,
        "StationName": "ANAFARTALAR CADDESI PETROL OFISI",
        "Address": "BARBAROS MH. ANAFARTALAR CAD. NO:34, EREĞLİ, Konya",
        "CityName": "Konya",
        "DistrictName": "EREĞLİ",
        "PhoneNumber": "03327131415",
        "Latitude": 37.5059,
        "Longitude": 34.0348,
        "CityId": "42",
        "DistrictId": "04215",
        "Zone": "Çukurova",
        "Services": "10010100100001100001101001000010101",
        "Url": "anafartalar-caddesi-petrol-ofisi-267"
      },
      {
        "Id": 1719,
        "StationName": "ANKARA ÇIKIŞI PETROL OFİSİ",
        "Address": "TÖMEK MAH. ANKARA CAD. NO 350, SELÇUKLU, Konya",
        "CityName": "Konya",
        "DistrictName": "SELÇUKLU",
        "PhoneNumber": "03322713444",
        "Latitude": 38.032383,
        "Longitude": 32.643547,
        "CityId": "42",
        "DistrictId": "04230",
        "Zone": "Çukurova",
        "Services": "00010000000000010000101101000010101",
        "Url": "ankara-cikisi-petrol-ofisi-1719"
      },
      {
        "Id": 2363,
        "StationName": "ANTALYA YOLU",
        "Address": "HARMANCIK MAHALLESİ ÇEVRE YOLU NO:196, MERAM, Konya",
        "CityName": "Konya",
        "DistrictName": "MERAM",
        "Latitude": 37.8281364,
        "Longitude": 32.4748582,
        "CityId": "42",
        "DistrictId": "04231",
        "Zone": "Çukurova",
        "Services": "00010000000000000000001000000000011",
        "Url": "antalya-yolu-2363"
      },
      {
        "Id": 2635,
        "StationName": "ASLIM CADDESİ PETROL OFİSİ",
        "Address": "FEVZİÇAKMAK MAH. ASLIM CAD. NO: 32I İÇ KAPI NO: 1, KARATAY, Konya",
        "CityName": "Konya",
        "DistrictName": "KARATAY",
        "Latitude": 37.914287,
        "Longitude": 32.555626,
        "CityId": "42",
        "DistrictId": "04229",
        "Zone": "Çukurova",
        "Services": "00000000000000000000001001000000100",
        "Url": "aslim-caddesi-petrol-ofisi-2635"
      },
      {
        "Id": 2661,
        "StationName": "ATÇEKEN PETROL OFİSİ",
        "Address": "ATÇEKEN MAH. ANKARA CAD. NO: 1262, CİHANBEYLİ, Konya",
        "CityName": "Konya",
        "DistrictName": "CİHANBEYLİ",
        "Latitude": 38.680929,
        "Longitude": 32.923098,
        "CityId": "42",
        "DistrictId": "04206",
        "Zone": "Çukurova",
        "Services": "00000000000000000000001001000000100",
        "Url": "atceken-petrol-ofisi-2661"
      },
      {
        "Id": 2377,
        "StationName": "BARIŞ CADDESI",
        "Address": "MALAZGİRT MAHALLESİ BARIŞ CADDESİ NO:26, SELÇUKLU, Konya",
        "CityName": "Konya",
        "DistrictName": "SELÇUKLU",
        "Latitude": 37.9281065,
        "Longitude": 32.4949076,
        "CityId": "42",
        "DistrictId": "04230",
        "Zone": "Çukurova",
        "Services": "00010000000000000000001000000000101",
        "Url": "baris-caddesi-2377"
      },
      {
        "Id": 2368,
        "StationName": "BEYHEKIM",
        "Address": "BEYHEKİM MAHALLESİ GÜLAÇAR SOKAĞI NO:17, SELÇUKLU, Konya",
        "CityName": "Konya",
        "DistrictName": "SELÇUKLU",
        "Latitude": 37.9817467,
        "Longitude": 32.5051376,
        "CityId": "42",
        "DistrictId": "04230",
        "Zone": "Çukurova",
        "Services": "00010000100000000000001001000000101",
        "Url": "beyhekim-2368"
      },
      {
        "Id": 2349,
        "StationName": "BEYŞEHIR",
        "Address": "MÜFTÜ MAHALLESİ BEYŞEHİR CADDESİ NO:2175, BEYŞEHİR, Konya",
        "CityName": "Konya",
        "DistrictName": "BEYŞEHİR",
        "Latitude": 37.6965636,
        "Longitude": 31.7267166,
        "CityId": "42",
        "DistrictId": "04204",
        "Zone": "Çukurova",
        "Services": "00010000000000000000001000000000011",
        "Url": "beysehir-2349"
      },
      {
        "Id": 1335,
        "StationName": "BEYŞEHIR ÇEVREYOLU PETROL OFISI",
        "Address": "ESENLER MH. ÇEVREYOLU CD. NO:75, SELÇUKLU, Konya",
        "CityName": "Konya",
        "DistrictName": "SELÇUKLU",
        "PhoneNumber": "03322474789",
        "Latitude": 37.891267,
        "Longitude": 32.468704,
        "CityId": "42",
        "DistrictId": "04230",
        "Zone": "Çukurova",
        "Services": "00010000100000110001001011000000101",
        "Url": "beysehir-cevreyolu-petrol-ofisi-1335"
      },
      {
        "Id": 1748,
        "StationName": "BEYŞEHİR GEMBOS ANTALYA YOLU PETROL OFİS",
        "Address": "ÜSTÜNLER MAH. ANTALYA CAD. NO:534, BEYŞEHİR, Konya",
        "CityName": "Konya",
        "DistrictName": "BEYŞEHİR",
        "Latitude": 37.576996,
        "Longitude": 31.563518,
        "CityId": "42",
        "DistrictId": "04204",
        "Zone": "Çukurova",
        "Services": "00010000000000000000001011000000101",
        "Url": "beysehir-gembos-antalya-yolu-petrol-ofis-1748"
      },
      {
        "Id": 542,
        "StationName": "BEYŞEHIR HUĞLU PETROL OFISI",
        "Address": "HUĞLU MAHALLESİ BEYŞEHİR (İSTİKLAL) CADDESİ NO:23, BEYŞEHİR, Konya",
        "CityName": "Konya",
        "DistrictName": "BEYŞEHİR",
        "PhoneNumber": "03325161255",
        "Latitude": 37.478922,
        "Longitude": 31.581161,
        "CityId": "42",
        "DistrictId": "04204",
        "Zone": "Çukurova",
        "Services": "00010000000000000001001000000000101",
        "Url": "beysehir-huglu-petrol-ofisi-542"
      },
      {
        "Id": 1644,
        "StationName": "BEYŞEHIR KONYA YOLU PETROL OFISI",
        "Address": "BAYINDIR MH. BEYŞEHİR CAD. NO:2073 KONYA  KONYA, BEYŞEHİR, Konya",
        "CityName": "Konya",
        "DistrictName": "BEYŞEHİR",
        "PhoneNumber": "03325212295",
        "Latitude": 37.713329,
        "Longitude": 31.75012,
        "CityId": "42",
        "DistrictId": "04204",
        "Zone": "Çukurova",
        "Services": "00010000000000100001101000000010101",
        "Url": "beysehir-konya-yolu-petrol-ofisi-1644"
      },
      {
        "Id": 1165,
        "StationName": "BEYŞEHIR PETROL OFISI",
        "Address": "MÜFTÜ MAH. MEVLANA CAD. NO:50, BEYŞEHİR, Konya",
        "CityName": "Konya",
        "DistrictName": "BEYŞEHİR",
        "PhoneNumber": "03325124193",
        "Latitude": 37.689221,
        "Longitude": 31.724291,
        "CityId": "42",
        "DistrictId": "04204",
        "Zone": "Çukurova",
        "Services": "00010000000000100001101001000010101",
        "Url": "beysehir-petrol-ofisi-1165"
      },
      {
        "Id": 2352,
        "StationName": "BUGDAYPAZARI",
        "Address": "HIDIRLI MAHALLESİ PROF.DR.BAHRİYE ÜÇOK CADDESİ NO:3, EREĞLİ, Konya",
        "CityName": "Konya",
        "DistrictName": "EREĞLİ",
        "Latitude": 37.5140311,
        "Longitude": 34.0453342,
        "CityId": "42",
        "DistrictId": "04215",
        "Zone": "Çukurova",
        "Services": "00010000000000000000001000000000011",
        "Url": "bugdaypazari-2352"
      },
      {
        "Id": 2359,
        "StationName": "BÜSAN KONYA",
        "Address": "FEVZİ ÇAKMAK MAH. ANKARA CAD. NO.206/A, KARATAY, Konya",
        "CityName": "Konya",
        "DistrictName": "KARATAY",
        "Latitude": 37.9208232,
        "Longitude": 32.5243699,
        "CityId": "42",
        "DistrictId": "04229",
        "Zone": "Çukurova",
        "Services": "00010000100000000001001000000000101",
        "Url": "busan-konya-2359"
      },
      {
        "Id": 1351,
        "StationName": "ÇELTIK PETROL OFISI",
        "Address": "İSHAKUŞAĞI MAH.ALTINOVA CAD.NO:371/A, ÇELTİK, Konya",
        "CityName": "Konya",
        "DistrictName": "ÇELTİK",
        "Latitude": 38.92409,
        "Longitude": 32.084625,
        "CityId": "42",
        "DistrictId": "04222",
        "Zone": "Çukurova",
        "Services": "00010001000000100001001001000000101",
        "Url": "celtik-petrol-ofisi-1351"
      },
      {
        "Id": 2358,
        "StationName": "ÇEVREYOLU",
        "Address": "FETİH MAHALLESİ ADANA ÇEVRE YOLU CADDESİ NO:92, KARATAY, Konya",
        "CityName": "Konya",
        "DistrictName": "KARATAY",
        "Latitude": 37.8763219,
        "Longitude": 32.5466604,
        "CityId": "42",
        "DistrictId": "04229",
        "Zone": "Çukurova",
        "Services": "00010000000000000000001000000000101",
        "Url": "cevreyolu-2358"
      },
      {
        "Id": 2350,
        "StationName": "CIHANBEYLI",
        "Address": "KARŞIYAKA MAHALLESİ ANKARA-KONYA YOLU ÜZERİ, CİHANBEYLİ, Konya",
        "CityName": "Konya",
        "DistrictName": "CİHANBEYLİ",
        "Latitude": 38.6560701,
        "Longitude": 32.917989,
        "CityId": "42",
        "DistrictId": "04206",
        "Zone": "Çukurova",
        "Services": "00010000000000000001001000000000011",
        "Url": "cihanbeyli-2350"
      },
      {
        "Id": 2351,
        "StationName": "CIHANBEYLI ORGANIZE",
        "Address": "YEŞİLÖZ MAHALLESİ ANKARA CADDESİ NO:1134, CİHANBEYLİ, Konya",
        "CityName": "Konya",
        "DistrictName": "CİHANBEYLİ",
        "Latitude": 38.6397261,
        "Longitude": 32.9269028,
        "CityId": "42",
        "DistrictId": "04206",
        "Zone": "Çukurova",
        "Services": "00010000100000000000001000000000011",
        "Url": "cihanbeyli-organize-2351"
      },
      {
        "Id": 2381,
        "StationName": "ÇUMRA",
        "Address": "İZZETBEY MAHALLESİ ALPARSLAN TÜRKEŞ CADDESİ NO:98, ÇUMRA, Konya",
        "CityName": "Konya",
        "DistrictName": "ÇUMRA",
        "PhoneNumber": "03324471804",
        "Latitude": 37.5699079,
        "Longitude": 32.7846026,
        "CityId": "42",
        "DistrictId": "04207",
        "Zone": "Çukurova",
        "Services": "00010000000000000000001000000000100",
        "Url": "cumra-2381"
      },
      {
        "Id": 540,
        "StationName": "ÇUMRA KARKIN KASABASI PETROL OFISI",
        "Address": "KARKIN KASABASI, ÇUMRA, Konya",
        "CityName": "Konya",
        "DistrictName": "ÇUMRA",
        "PhoneNumber": "03324525076",
        "Latitude": 37.675272,
        "Longitude": 32.884606,
        "CityId": "42",
        "DistrictId": "04207",
        "Zone": "Çukurova",
        "Services": "00010000000000000001000000000000101",
        "Url": "cumra-karkin-kasabasi-petrol-ofisi-540"
      },
      {
        "Id": 1716,
        "StationName": "ÇUMRA PETROL OFISI",
        "Address": "MEYDAN MAH. MUSTAFA KEMAL CAD.NO:35, ÇUMRA, Konya",
        "CityName": "Konya",
        "DistrictName": "ÇUMRA",
        "Latitude": 37.572201,
        "Longitude": 32.771435,
        "CityId": "42",
        "DistrictId": "04207",
        "Zone": "Çukurova",
        "Services": "00010000000000000000001000000000101",
        "Url": "cumra-petrol-ofisi-1716"
      },
      {
        "Id": 2374,
        "StationName": "ELMALI CADDESI",
        "Address": "YAZIR MAHALLESİ ELMALI HAMDİ HOCA CADDESİ NO:28, SELÇUKLU, Konya",
        "CityName": "Konya",
        "DistrictName": "SELÇUKLU",
        "Latitude": 37.9607785,
        "Longitude": 32.4992807,
        "CityId": "42",
        "DistrictId": "04230",
        "Zone": "Çukurova",
        "Services": "00010000100000000000001001000000101",
        "Url": "elmali-caddesi-2374"
      },
      {
        "Id": 282,
        "StationName": "EMIRGAZI PETROL OFISI",
        "Address": "BELKAYA KASABASI ÇIKIŞI AKSARAY YOLU ÜZERİ YUNUS EMRE MAH., EREĞLİ, Konya",
        "CityName": "Konya",
        "DistrictName": "EREĞLİ",
        "PhoneNumber": "03327162005",
        "Latitude": 37.92489,
        "Longitude": 33.917959,
        "CityId": "42",
        "DistrictId": "04215",
        "Zone": "Çukurova",
        "Services": "00010000100000100001001000000000101",
        "Url": "emirgazi-petrol-ofisi-282"
      },
      {
        "Id": 281,
        "StationName": "EREĞLİ - KARAMAN YOLU PETROL OFISI",
        "Address": "BURHANİYE KÖYÜ KARAMAN YOLU ÜZERİ, EREĞLİ, Konya",
        "CityName": "Konya",
        "DistrictName": "EREĞLİ",
        "PhoneNumber": "03327319399",
        "Latitude": 37.485221,
        "Longitude": 33.999777,
        "CityId": "42",
        "DistrictId": "04215",
        "Zone": "Çukurova",
        "Services": "00010000100000100001001000000000101",
        "Url": "eregli-karaman-yolu-petrol-ofisi-281"
      },
      {
        "Id": 283,
        "StationName": "EREĞLI - KARAPINAR YOLU PETROL OFISI",
        "Address": "KARGACI KÖYÜ, EREĞLİ, Konya",
        "CityName": "Konya",
        "DistrictName": "EREĞLİ",
        "PhoneNumber": "03327183521",
        "Latitude": 37.551276,
        "Longitude": 33.985198,
        "CityId": "42",
        "DistrictId": "04215",
        "Zone": "Çukurova",
        "Services": "10010000010000100000111001000010101",
        "Url": "eregli-karapinar-yolu-petrol-ofisi-283"
      },
      {
        "Id": 1349,
        "StationName": "EREĞLI MAKASI PETROL OFISI",
        "Address": "AZİZİYE MAH. ÇAKMAK SOK. NO:79, EREĞLİ, Konya",
        "CityName": "Konya",
        "DistrictName": "EREĞLİ",
        "Latitude": 37.659524,
        "Longitude": 34.34191,
        "CityId": "42",
        "DistrictId": "04215",
        "Zone": "Çukurova",
        "Services": "10010100010000110001001001000000101",
        "Url": "eregli-makasi-petrol-ofisi-1349"
      },
      {
        "Id": 280,
        "StationName": "EREĞLI MERKEZ PETROL OFISI",
        "Address": "ALPARSLAN MAHALLESİ ANIT CADDESİ NO:16, EREĞLİ, Konya",
        "CityName": "Konya",
        "DistrictName": "EREĞLİ",
        "PhoneNumber": "03327133609",
        "Latitude": 37.517267,
        "Longitude": 34.052226,
        "CityId": "42",
        "DistrictId": "04215",
        "Zone": "Çukurova",
        "Services": "00010000100000100000101001000010101",
        "Url": "eregli-merkez-petrol-ofisi-280"
      },
      {
        "Id": 2362,
        "StationName": "ESKI GARAJ",
        "Address": "KARAKURT MAHALLESİ KARAMAN CADDESİ NO:110, MERAM, Konya",
        "CityName": "Konya",
        "DistrictName": "MERAM",
        "Latitude": 37.866059,
        "Longitude": 32.5005949,
        "CityId": "42",
        "DistrictId": "04231",
        "Zone": "Çukurova",
        "Services": "00010000100000000000001000000000011",
        "Url": "eski-garaj-2362"
      },
      {
        "Id": 650,
        "StationName": "GÜNAYDINLAR DINLENME TESISI PETROL OFISI",
        "Address": "KONYA KARAYOLU 2.KM. KARABULAK MEVKİİ, SEYDİŞEHİR, Konya",
        "CityName": "Konya",
        "DistrictName": "SEYDİŞEHİR",
        "PhoneNumber": "03325810806",
        "Latitude": 37.45194,
        "Longitude": 31.862242,
        "CityId": "42",
        "DistrictId": "04218",
        "Zone": "Çukurova",
        "Services": "10010001000000100001101000000010101",
        "Url": "gunaydinlar-dinlenme-tesisi-petrol-ofisi-650"
      },
      {
        "Id": 2367,
        "StationName": "HOCACIHAN",
        "Address": "SELÇUK MAHALLESİ BEYŞEHİR CADDESİ NO:68, SELÇUKLU, Konya",
        "CityName": "Konya",
        "DistrictName": "SELÇUKLU",
        "Latitude": 37.8778597,
        "Longitude": 32.4677026,
        "CityId": "42",
        "DistrictId": "04230",
        "Zone": "Çukurova",
        "Services": "00010000100000000000001000000000011",
        "Url": "hocacihan-2367"
      },
      {
        "Id": 2369,
        "StationName": "HOROZLUHAN",
        "Address": "HOROZLUHAN MAHALLESİ AYAZLAR SOKAK NO.4, SELÇUKLU, Konya",
        "CityName": "Konya",
        "DistrictName": "SELÇUKLU",
        "Latitude": 37.9404025,
        "Longitude": 32.5121886,
        "CityId": "42",
        "DistrictId": "04230",
        "Zone": "Çukurova",
        "Services": "00010000100000000000001001000000101",
        "Url": "horozluhan-2369"
      },
      {
        "Id": 1394,
        "StationName": "HOROZLUHAN PETROL OFISI",
        "Address": "HOROZLUHAN MAH.ALBAYRAK CAD. NO:23/A, SELÇUKLU, Konya",
        "CityName": "Konya",
        "DistrictName": "SELÇUKLU",
        "PhoneNumber": "03322378350",
        "Latitude": 37.927111,
        "Longitude": 32.516452,
        "CityId": "42",
        "DistrictId": "04230",
        "Zone": "Çukurova",
        "Services": "00010001100000110001001101000000101",
        "Url": "horozluhan-petrol-ofisi-1394"
      },
      {
        "Id": 2354,
        "StationName": "HORTU",
        "Address": "SAZGEÇİT BELDESİ, MENDERES MAHALLESİ, AHMET TANER KIŞLALI C, EREĞLİ, Konya",
        "CityName": "Konya",
        "DistrictName": "EREĞLİ",
        "Latitude": 37.584877,
        "Longitude": 33.9387985,
        "CityId": "42",
        "DistrictId": "04215",
        "Zone": "Çukurova",
        "Services": "00010000000000000000001000000000011",
        "Url": "hortu-2354"
      },
      {
        "Id": 2355,
        "StationName": "ILGIN",
        "Address": "UÇARI MAHALLESİ YENİ İSTANBUL CADDESİ NO:1969, ILGIN, Konya",
        "CityName": "Konya",
        "DistrictName": "ILGIN",
        "Latitude": 38.2878449,
        "Longitude": 31.9255216,
        "CityId": "42",
        "DistrictId": "04212",
        "Zone": "Çukurova",
        "Services": "00010000000000000001001000000000011",
        "Url": "ilgin-2355"
      },
      {
        "Id": 537,
        "StationName": "ILGIN CAMIATIK MAHALLESI PETROL OFISI",
        "Address": "CAMİATİK MAHALLESİ BAĞDAT CADDESİ NO:7, ILGIN, Konya",
        "CityName": "Konya",
        "DistrictName": "ILGIN",
        "PhoneNumber": "03328826120",
        "Latitude": 38.289277,
        "Longitude": 31.911966,
        "CityId": "42",
        "DistrictId": "04212",
        "Zone": "Çukurova",
        "Services": "00010000100000100001001000000000101",
        "Url": "ilgin-camiatik-mahallesi-petrol-ofisi-537"
      },
      {
        "Id": 2364,
        "StationName": "İNLICE",
        "Address": "İNLİCE MAHALLESİ ANTALYA ÇEVRE YOLU CADDESİ 726 SOKAĞI, MERAM, Konya",
        "CityName": "Konya",
        "DistrictName": "MERAM",
        "Latitude": 37.7505685,
        "Longitude": 32.1017597,
        "CityId": "42",
        "DistrictId": "04231",
        "Zone": "Çukurova",
        "Services": "00010000000000000000001001000000101",
        "Url": "inlice-2364"
      },
      {
        "Id": 1828,
        "StationName": "KADINHANI PETROL OFİSİ",
        "Address": "KARAKAYA MAH YENİ İSTANBUL CAD. NO:1192, KADINHANI, Konya",
        "CityName": "Konya",
        "DistrictName": "KADINHANI",
        "Latitude": 38.234159,
        "Longitude": 32.200922,
        "CityId": "42",
        "DistrictId": "04213",
        "Zone": "Çukurova",
        "Services": "00010000100000000001001001000000101",
        "Url": "kadinhani-petrol-ofisi-1828"
      },